[
    {
        "id": "jp_tokyo_f1",
        "segment": "trad_restaurants",
        "name": "Gyopao Gyoza Shinjuku East",
        "city": "Tokyo",
        "lat": 35.693407256203834,
        "lng": 139.70117028649628,
        "rating": 4.8,
        "price_range": "15-30",
        "address": "Pandora Building, B1, 3-23-12 Shinjuku, Tokyo 160-0022, Japan",
        "image": "/wp-content/themes/allegiantairtickets/assets/images/coming-soon.png",
        "hours": "15:00–23:30 (may vary)",
        "description": "Gyoza spot in Shinjuku (high-volume, quick bite)."
    },
    {
        "id": "jp_tokyo_f2",
        "segment": "chicken",
        "name": "HALAL MASTER CHICKEN SHIBUYA",
        "city": "Tokyo",
        "lat": 35.660996939160256,
        "lng": 139.69670275079758,
        "rating": 4.8,
        "price_range": "7-16",
        "address": "Udagawacho 33-10 B1F, Shibuya, Tokyo 150-0042, Japan",
        "image": "/wp-content/themes/allegiantairtickets/assets/images/coming-soon.png",
        "hours": "11:00–22:30 daily",
        "description": "Halal-friendly chicken-focused spot in Shibuya."
    },
    {
        "id": "jp_tokyo_f3",
        "segment": "noodles",
        "name": "Menya NOBUNAGA (Ramen)",
        "city": "Tokyo",
        "lat": 35.67668752724655,
        "lng": 139.77045949631335,
        "rating": 4.7,
        "price_range": "7-16",
        "address": "2-5-2 Kyobashi, Chuo City, Tokyo 104-0031, Japan",
        "image": "/wp-content/themes/allegiantairtickets/assets/images/coming-soon.png",
        "hours": "10:00–22:00 daily",
        "description": "Ramen shop in Kyobashi (solid default meal)."
    },
    {
        "id": "jp_tokyo_f4",
        "segment": "trad_restaurants",
        "name": "Godaime Wagyu Tokyo",
        "city": "Tokyo",
        "lat": 35.66633592592978,
        "lng": 139.765038138642,
        "rating": 4.7,
        "price_range": "50-100+",
        "address": "The Forme Ginza, B1, 8-18-4 Ginza, Chuo City, Tokyo 104-0061, Japan",
        "image": "/wp-content/themes/allegiantairtickets/assets/images/coming-soon.png",
        "hours": "11:00–01:00",
        "description": "Wagyu-focused dining in Ginza (premium tier)."
    },
    {
        "id": "jp_tokyo_f5",
        "segment": "trad_restaurants",
        "name": "WAGYU SUKIYAKI GOKU Tsukiji",
        "city": "Tokyo",
        "lat": 35.66608946681999,
        "lng": 139.77150090119417,
        "rating": 4.9,
        "price_range": "35-45",
        "address": "3-17-10 Tsukiji, Chuo City, Tokyo 104-0045, Japan",
        "image": "/wp-content/themes/allegiantairtickets/assets/images/coming-soon.png",
        "hours": "07:00–22:00 daily",
        "description": "Sukiyaki spot near Tsukiji (early-to-late service)."
    },
    {
        "id": "jp_tokyo_n1",
        "segment": "nature",
        "name": "Shinjuku Gyoen National Garden",
        "city": "Tokyo",
        "lat": 35.68532441606449,
        "lng": 139.71013216256233,
        "rating": 4.6,
        "price_range": "3-5",
        "address": "Shinjuku, Tokyo, Japan",
        "image": "/wp-content/themes/allegiantairtickets/assets/images/coming-soon.png",
        "hours": "09:00–16:00 (varies by season)",
        "description": "Huge landscaped gardens; peak for cherry blossoms & autumn leaves; great for picnics."
    },
    {
        "id": "jp_tokyo_n2",
        "segment": "nature",
        "name": "Ueno Park",
        "city": "Tokyo",
        "lat": 35.71486891677268,
        "lng": 139.77342583188008,
        "rating": 4.4,
        "price_range": "0-0",
        "address": "Ueno, Taito City, Tokyo, Japan",
        "image": "/wp-content/themes/allegiantairtickets/assets/images/coming-soon.png",
        "hours": "05:00–23:00",
        "description": "Large city park with ponds and nearby museums/zoo; strong all-season stroll option."
    },
    {
        "id": "jp_tokyo_n3",
        "segment": "beaches",
        "name": "Odaiba Seaside Park",
        "city": "Tokyo",
        "lat": 35.63006640744397,
        "lng": 139.775684203424,
        "rating": 4.4,
        "price_range": "0-0",
        "address": "1-4 Daiba, Minato City, Tokyo 135-0091, Japan",
        "image": "/wp-content/themes/allegiantairtickets/assets/images/coming-soon.png",
        "hours": "Open 24 hours",
        "description": "Waterfront park with Tokyo Bay views, sunsets, and Rainbow Bridge photo ops."
    },
    {
        "id": "jp_tokyo_n4",
        "segment": "nature",
        "name": "Hamarikyu Gardens",
        "city": "Tokyo",
        "lat": 35.65977791214039,
        "lng": 139.7634251895485,
        "rating": 4.4,
        "price_range": "3-4",
        "address": "1 Chome-1 Hamarikyuteien, Chuo City, Tokyo, Japan",
        "image": "/wp-content/themes/allegiantairtickets/assets/images/coming-soon.png",
        "hours": "09:00–17:00",
        "description": "Traditional Edo-era garden with tidal pond and tea house."
    },
    {
        "id": "jp_tokyo_n5",
        "segment": "nature",
        "name": "Yoyogi Park",
        "city": "Tokyo",
        "lat": 35.670078076126266,
        "lng": 139.69496610863266,
        "rating": 4.3,
        "price_range": "0-0",
        "address": "Yoyogikamizonocho, Shibuya City, Tokyo, Japan",
        "image": "/wp-content/themes/allegiantairtickets/assets/images/coming-soon.png",
        "hours": "Open 24 hours",
        "description": "Big urban green space near Shibuya/Harajuku; easy reset between city stops."
    },
    {
        "id": "jp_tokyo_c1",
        "segment": "attractions",
        "name": "Sensō-ji (Asakusa)",
        "city": "Tokyo",
        "lat": 35.71478361108033,
        "lng": 139.79665664108268,
        "rating": 4.6,
        "price_range": "0-0",
        "address": "2-3-1 Asakusa, Taito City, Tokyo 111-0032, Japan",
        "image": "/wp-content/themes/allegiantairtickets/assets/images/coming-soon.png",
        "description": "Tokyo’s oldest temple; Nakamise shopping street and classic Asakusa vibe."
    },
    {
        "id": "jp_tokyo_c2",
        "segment": "culture",
        "name": "Meiji Jingu Shrine",
        "city": "Tokyo",
        "lat": 35.676407404705905,
        "lng": 139.6993229109644,
        "rating": 4.7,
        "price_range": "0-0",
        "address": "1-1 Yoyogikamizonocho, Shibuya City, Tokyo 151-8557, Japan",
        "image": "/wp-content/themes/allegiantairtickets/assets/images/coming-soon.png",
        "description": "Forested shrine walk; peaceful rituals and traditional architecture."
    },
    {
        "id": "jp_tokyo_c3",
        "segment": "culture",
        "name": "Edo-Tokyo Museum",
        "city": "Tokyo",
        "lat": 35.69646841554939,
        "lng": 139.79646553246909,
        "rating": 4.5,
        "price_range": "6-8",
        "address": "1-4-1 Yokoami, Sumida City, Tokyo 130-0015, Japan",
        "image": "/wp-content/themes/allegiantairtickets/assets/images/coming-soon.png",
        "description": "Tokyo history deep-dive with large-scale models and cultural exhibits."
    },
    {
        "id": "jp_tokyo_c4",
        "segment": "culture",
        "name": "Nezu Shrine",
        "city": "Tokyo",
        "lat": 35.72014902721407,
        "lng": 139.76076745474515,
        "rating": 4.6,
        "price_range": "0-0",
        "address": "1-28-9 Nezu, Bunkyo City, Tokyo 113-0031, Japan",
        "image": "/wp-content/themes/allegiantairtickets/assets/images/coming-soon.png",
        "description": "Classic torii and seasonal azalea garden; quieter shrine experience."
    },
    {
        "id": "jp_tokyo_c5",
        "segment": "attractions",
        "name": "teamLab Borderless",
        "city": "Tokyo",
        "lat": 35.662076088004255,
        "lng": 139.74326363508052,
        "rating": 4.8,
        "price_range": "55-60",
        "address": "2-1-1 Aomi, Koto City, Tokyo 135-0064, Japan",
        "image": "/wp-content/themes/allegiantairtickets/assets/images/coming-soon.png",
        "description": "Immersive digital art museum; interactive rooms and light installations."
    },

    {
        "id": "jp_kyoto_f1",
        "segment": "street_food",
        "name": "Nishiki Market",
        "city": "Kyoto",
        "lat": 35.00504447451487,
        "lng": 135.76472970552223,
        "rating": 4.4,
        "price_range": "2-15",
        "address": "Nishikikoji Dori, Nakagyo-ku, Kyoto 604-8054, Japan",
        "image": "/wp-content/themes/allegiantairtickets/assets/images/coming-soon.png",
        "description": "Kyoto’s go-to food market: snacks, pickles, seafood, sweets."
    },
    {
        "id": "jp_kyoto_f2",
        "segment": "trad_restaurants",
        "name": "Izuju (Kyoto Sushi)",
        "city": "Kyoto",
        "lat": 35.003973387030676,
        "lng": 135.7770824349397,
        "rating": 4.3,
        "price_range": "12-25",
        "address": "292 Gionshirakawa-cho, Higashiyama-ku, Kyoto 605-0812, Japan",
        "image": "/wp-content/themes/allegiantairtickets/assets/images/coming-soon.png",
        "description": "Kyoto-style pressed sushi (saba/mackerel)."
    },
    {
        "id": "jp_kyoto_f3",
        "segment": "noodles",
        "name": "Omen (Udon Restaurant)",
        "city": "Kyoto",
        "lat": 35.01157731589746,
        "lng": 135.77087770807378,
        "rating": 4.4,
        "price_range": "10-18",
        "address": "421 Tominokoji-cho, Sanjo-dori, Nakagyo-ku, Kyoto 604-0923, Japan",
        "image": "/wp-content/themes/allegiantairtickets/assets/images/coming-soon.png",
        "description": "Handmade udon with seasonal sides."
    },
    {
        "id": "jp_kyoto_f4",
        "segment": "trad_restaurants",
        "name": "Yudofu Sagano (Tofu Cuisine)",
        "city": "Kyoto",
        "lat": 35.01458378531792,
        "lng": 135.6744306846579,
        "rating": 4.3,
        "price_range": "15-30",
        "address": "Sagaogurayama Tabuchiyamacho, Ukyo-ku, Kyoto 616-8371, Japan",
        "image": "/wp-content/themes/allegiantairtickets/assets/images/coming-soon.png",
        "description": "Traditional yudofu tofu set; strong pairing with Arashiyama/temples."
    },
    {
        "id": "jp_kyoto_f5",
        "segment": "noodles",
        "name": "Kyoto Gogyo (Burnt Miso Ramen)",
        "city": "Kyoto",
        "lat": 35.00533,
        "lng": 135.763888,
        "rating": 4.2,
        "price_range": "10-18",
        "address": "Nakagyo Ward, Kyoto 604-8121, Japan",
        "image": "/wp-content/themes/allegiantairtickets/assets/images/coming-soon.png",
        "description": "Smoky burnt-miso ramen; signature Kyoto Gogyo style."
    },

    {
        "id": "jp_kyoto_n1",
        "segment": "trails",
        "name": "Arashiyama Bamboo Grove",
        "city": "Kyoto",
        "lat": 35.01700761471421,
        "lng": 135.67125838465893,
        "rating": 4.7,
        "price_range": "0-0",
        "address": "Arashiyama, Ukyo-ku, Kyoto 616-8384, Japan",
        "image": "/wp-content/themes/allegiantairtickets/assets/images/coming-soon.png",
        "description": "Bamboo forest walk with river scenery; best early morning for lower crowds."
    },
    {
        "id": "jp_kyoto_n2",
        "segment": "trails",
        "name": "Philosopher’s Path",
        "city": "Kyoto",
        "lat": 35.02161574533468,
        "lng": 135.7942948,
        "rating": 4.6,
        "price_range": "0-0",
        "address": "Near Ginkaku-ji to Nanzen-ji, Kyoto, Japan",
        "image": "/wp-content/themes/allegiantairtickets/assets/images/coming-soon.png",
        "description": "Canal-side stroll; famous for cherry blossoms and calm neighborhoods."
    },
    {
        "id": "jp_kyoto_n3",
        "segment": "nature",
        "name": "Kamo River Walk",
        "city": "Kyoto",
        "lat": 34.98654623824422,
        "lng": 135.76923825467662,
        "rating": 4.6,
        "price_range": "0-0",
        "address": "Along Kamo River, Kyoto City, Japan",
        "image": "/wp-content/themes/allegiantairtickets/assets/images/coming-soon.png",
        "description": "Riverside walk and picnic zone; simple, repeatable downtime."
    },
    {
        "id": "jp_kyoto_n4",
        "segment": "nature",
        "name": "Kyoto Botanical Gardens",
        "city": "Kyoto",
        "lat": 35.04881482452763,
        "lng": 135.76309144417633,
        "rating": 4.4,
        "price_range": "3-5",
        "address": "3 Takano Nishimachi, Sakyo Ward, Kyoto, Japan",
        "image": "/wp-content/themes/allegiantairtickets/assets/images/coming-soon.png",
        "description": "Wide variety of plants and seasonal blooms; low-friction nature break."
    },
    {
        "id": "jp_kyoto_n5",
        "segment": "trails",
        "name": "Mount Hiei (Hieizan)",
        "city": "Kyoto",
        "lat": 35.06293218197419,
        "lng": 135.83148878465894,
        "rating": 4.6,
        "price_range": "0-15",
        "address": "Sakamoto, Otsu, Shiga (near Kyoto), Japan",
        "image": "/wp-content/themes/allegiantairtickets/assets/images/coming-soon.png",
        "description": "Hiking and views over Kyoto & Lake Biwa; cable car optional."
    },

    {
        "id": "jp_kyoto_c1",
        "segment": "culture",
        "name": "Fushimi Inari Taisha",
        "city": "Kyoto",
        "lat": 34.96793628008788,
        "lng": 135.77913395582368,
        "rating": 4.8,
        "price_range": "0-0",
        "address": "68 Fukakusa Yabunouchicho, Fushimi Ward, Kyoto 612-0882, Japan",
        "image": "/wp-content/themes/allegiantairtickets/assets/images/coming-soon.png",
        "description": "Iconic torii gate hike; go early or late for fewer crowds."
    },
    {
        "id": "jp_kyoto_c2",
        "segment": "culture",
        "name": "Gion District",
        "city": "Kyoto",
        "lat": 35.0035,
        "lng": 135.7751,
        "rating": 4.5,
        "price_range": "0-0",
        "address": "Gionmachi, Higashiyama Ward, Kyoto 605-0074, Japan",
        "image": "/wp-content/themes/allegiantairtickets/assets/images/coming-soon.png",
        "description": "Historic streets and teahouses; geiko/maiko culture and evening ambience."
    },
    {
        "id": "jp_kyoto_c3",
        "segment": "shopping",
        "name": "Nishiki Market (Cultural Walk)",
        "city": "Kyoto",
        "lat": 35.00524989389696,
        "lng": 135.76474445767053,
        "rating": 4.4,
        "price_range": "2-15",
        "address": "Nishikikoji Dori, Nakagyo-ku, Kyoto 604-8054, Japan",
        "image": "/wp-content/themes/allegiantairtickets/assets/images/coming-soon.png",
        "description": "Market-as-culture: local flavors + Kyoto street life."
    },
    {
        "id": "jp_kyoto_c4",
        "segment": "culture",
        "name": "Kennin-ji Temple",
        "city": "Kyoto",
        "lat": 35.000216464952054,
        "lng": 135.77367048835262,
        "rating": 4.4,
        "price_range": "4-6",
        "address": "584 Matsubara-cho, Higashiyama Ward, Kyoto 605-0811, Japan",
        "image": "/wp-content/themes/allegiantairtickets/assets/images/coming-soon.png",
        "description": "Zen temple complex; strong architecture and gardens."
    },
    {
        "id": "jp_kyoto_c5",
        "segment": "culture",
        "name": "Imamiya Shrine",
        "city": "Kyoto",
        "lat": 35.045958066143584,
        "lng": 135.74204622985198,
        "rating": 4.3,
        "price_range": "0-0",
        "address": "21 Imamiya-cho, Kita-ku, Kyoto 603-8231, Japan",
        "image": "/wp-content/themes/allegiantairtickets/assets/images/coming-soon.png",
        "description": "Heian-era shrine with local festival traditions; quieter than the headline shrines."
    },

    {
        "id": "jp_osaka_f1",
        "segment": "street_food",
        "name": "Dotonbori Street Food (Takoyaki & Okonomiyaki)",
        "city": "Osaka",
        "lat": 34.6688689955622,
        "lng": 135.5013131929513,
        "rating": 4.5,
        "price_range": "3-15",
        "address": "Dotonbori, Chuo Ward, Osaka 542-0071, Japan",
        "image": "/wp-content/themes/allegiantairtickets/assets/images/coming-soon.png",
        "description": "Osaka street food hub; best for takoyaki, okonomiyaki, kushikatsu."
    },
    {
        "id": "jp_osaka_f2",
        "segment": "street_food",
        "name": "Kuromon Ichiba Market",
        "city": "Osaka",
        "lat": 34.665365263851335,
        "lng": 135.50623870290434,
        "rating": 4.5,
        "price_range": "2-20",
        "address": "2 Chome-2-15 Nippombashi, Chuo Ward, Osaka 542-0073, Japan",
        "image": "/wp-content/themes/allegiantairtickets/assets/images/coming-soon.png",
        "description": "Seafood grills, wagyu bites, fruit and snacks; efficient lunch zone."
    },
    {
        "id": "jp_osaka_f3",
        "segment": "noodles",
        "name": "Ichiran Ramen Osaka (Dotonbori)",
        "city": "Osaka",
        "lat": 34.66848051969452,
        "lng": 135.50321278994713,
        "rating": 4.3,
        "price_range": "10-15",
        "address": "1-12-5 Dotonbori, Chuo Ward, Osaka 542-0071, Japan",
        "image": "/wp-content/themes/allegiantairtickets/assets/images/coming-soon.png",
        "description": "Solo-booth tonkotsu ramen experience; reliable chain option."
    },
    {
        "id": "jp_osaka_f4",
        "segment": "trad_restaurants",
        "name": "Mizuno (Okonomiyaki)",
        "city": "Osaka",
        "lat": 34.668366630001124,
        "lng": 135.50322364467806,
        "rating": 4.4,
        "price_range": "10-18",
        "address": "1-4-15 Dotonbori, Chuo Ward, Osaka 542-0071, Japan",
        "image": "/wp-content/themes/allegiantairtickets/assets/images/coming-soon.png",
        "description": "Classic Osaka-style okonomiyaki; high-demand at peak hours."
    },
    {
        "id": "jp_osaka_f5",
        "segment": "trad_restaurants",
        "name": "Harukoma Sushi (Main Store)",
        "city": "Osaka",
        "lat": 34.70947594695981,
        "lng": 135.51159715764416,
        "rating": 4.4,
        "price_range": "15-30",
        "address": "1-9-19 Toyosaki, Kita Ward, Osaka 531-0072, Japan",
        "image": "/wp-content/themes/allegiantairtickets/assets/images/coming-soon.png",
        "description": "Busy local sushi spot; strong value-to-quality ratio."
    },

    {
        "id": "jp_osaka_n1",
        "segment": "nature",
        "name": "Osaka Castle Park",
        "city": "Osaka",
        "lat": 34.686638497458745,
        "lng": 135.52627040854063,
        "rating": 4.6,
        "price_range": "0-8",
        "address": "1-1 Osakajo, Chuo Ward, Osaka 540-0002, Japan",
        "image": "/wp-content/themes/allegiantairtickets/assets/images/coming-soon.png",
        "description": "Park grounds are free; castle tower is paid—solid cherry blossom circuit."
    },
    {
        "id": "jp_osaka_n2",
        "segment": "trails",
        "name": "Minoo Park (Minoh Park)",
        "city": "Osaka",
        "lat": 34.84730833308622,
        "lng": 135.4723303067056,
        "rating": 4.6,
        "price_range": "0-0",
        "address": "Minoh, Osaka 562-0002, Japan",
        "image": "/wp-content/themes/allegiantairtickets/assets/images/coming-soon.png",
        "description": "Forest walk to waterfall; strong autumn leaves."
    },
    {
        "id": "jp_osaka_n3",
        "segment": "nature",
        "name": "Nagai Park & Botanical Garden",
        "city": "Osaka",
        "lat": 34.61272590914305,
        "lng": 135.52002785086063,
        "rating": 4.4,
        "price_range": "0-5",
        "address": "2-1-1 Nagai Park, Higashisumiyoshi Ward, Osaka 546-0034, Japan",
        "image": "/wp-content/themes/allegiantairtickets/assets/images/coming-soon.png",
        "description": "Large urban park; botanical garden add-on."
    },
    {
        "id": "jp_osaka_n4",
        "segment": "nature",
        "name": "Expo ’70 Commemorative Park",
        "city": "Osaka",
        "lat": 34.80627168628254,
        "lng": 135.52901769319394,
        "rating": 4.5,
        "price_range": "2-7",
        "address": "1-1 Senribanpakukoen, Suita, Osaka 565-0826, Japan",
        "image": "/wp-content/themes/allegiantairtickets/assets/images/coming-soon.png",
        "description": "Big open space + gardens; good for a half-day reset."
    },
    {
        "id": "jp_osaka_n5",
        "segment": "beaches",
        "name": "Tempozan Harbor Village / Waterfront",
        "city": "Osaka",
        "lat": 34.6558630527318,
        "lng": 135.43021732581246,
        "rating": 4.3,
        "price_range": "0-0",
        "address": "1-1-10 Kaigandori, Minato Ward, Osaka 552-0022, Japan",
        "image": "/wp-content/themes/allegiantairtickets/assets/images/coming-soon.png",
        "description": "Harbor promenade and bay views; easy sunset slot."
    },

    {
        "id": "jp_osaka_c1",
        "segment": "attractions",
        "name": "Osaka Castle (Main Keep)",
        "city": "Osaka",
        "lat": 34.68731262594949,
        "lng": 135.52584806682174,
        "rating": 4.5,
        "price_range": "6-8",
        "address": "1-1 Osakajo, Chuo Ward, Osaka 540-0002, Japan",
        "image": "/wp-content/themes/allegiantairtickets/assets/images/coming-soon.png",
        "description": "Historic castle museum with city views from the keep."
    },
    {
        "id": "jp_osaka_c2",
        "segment": "culture",
        "name": "Shitennoji Temple",
        "city": "Osaka",
        "lat": 34.65468756269337,
        "lng": 135.5165185355177,
        "rating": 4.4,
        "price_range": "3-6",
        "address": "1-11-18 Shitennoji, Tennoji Ward, Osaka 543-0051, Japan",
        "image": "/wp-content/themes/allegiantairtickets/assets/images/coming-soon.png",
        "description": "One of Japan’s oldest Buddhist temples; classic grounds and halls."
    },
    {
        "id": "jp_osaka_c3",
        "segment": "culture",
        "name": "Sumiyoshi-taisha Shrine",
        "city": "Osaka",
        "lat": 34.61241176502579,
        "lng": 135.49375723301867,
        "rating": 4.6,
        "price_range": "0-0",
        "address": "2-9-89 Sumiyoshi, Sumiyoshi Ward, Osaka 558-0045, Japan",
        "image": "/wp-content/themes/allegiantairtickets/assets/images/coming-soon.png",
        "description": "Iconic shrine architecture and bridge approach; calm and photogenic."
    },
    {
        "id": "jp_osaka_c4",
        "segment": "culture",
        "name": "National Museum of Art, Osaka",
        "city": "Osaka",
        "lat": 34.69179237556414,
        "lng": 135.49198198825638,
        "rating": 4.4,
        "price_range": "6-10",
        "address": "4-2-55 Nakanoshima, Kita Ward, Osaka 530-0005, Japan",
        "image": "/wp-content/themes/allegiantairtickets/assets/images/coming-soon.png",
        "description": "Modern Japanese + international art; unique underground design."
    },
    {
        "id": "jp_osaka_c5",
        "segment": "culture",
        "name": "Osaka Museum of History",
        "city": "Osaka",
        "lat": 34.68279054983729,
        "lng": 135.52077067784143,
        "rating": 4.4,
        "price_range": "5-7",
        "address": "4-1-32 Otemae, Chuo Ward, Osaka 540-0008, Japan",
        "image": "/wp-content/themes/allegiantairtickets/assets/images/coming-soon.png",
        "description": "Osaka timeline from ancient to modern; good pre/post-castle pairing."
    },

    {
        "id": "jp_fuji_f1",
        "segment": "noodles",
        "name": "Hoto Fudo (Kawaguchiko)",
        "city": "Fuji & Hakone",
        "lat": 35.49882572427499,
        "lng": 138.76868381488856,
        "rating": 4.4,
        "price_range": "10-18",
        "address": "2929 Funatsu, Fujikawaguchiko, Yamanashi 401-0301, Japan",
        "image": "/wp-content/themes/allegiantairtickets/assets/images/coming-soon.png",
        "description": "Local hoto noodles (thick udon-style) in miso broth—Fuji-area staple."
    },
    {
        "id": "jp_fuji_f2",
        "segment": "coffee",
        "name": "Fujiyama Cookie (Kawaguchiko)",
        "city": "Fuji & Hakone",
        "lat": 35.50433691883668,
        "lng": 138.77166889785985,
        "rating": 4.5,
        "price_range": "3-10",
        "address": "2782 Funatsu, Fujikawaguchiko, Yamanashi 401-0301, Japan",
        "image": "/wp-content/themes/allegiantairtickets/assets/images/coming-soon.png",
        "description": "Fuji-shaped cookies and souvenirs; quick snack stop."
    },
    {
        "id": "jp_fuji_f3",
        "segment": "coffee",
        "name": "Bakery & Table (Lake Kawaguchi)",
        "city": "Fuji & Hakone",
        "lat": 35.524311039269755,
        "lng": 138.74738169802086,
        "rating": 4.3,
        "price_range": "8-18",
        "address": "2259-3 Funatsu, Fujikawaguchiko, Yamanashi 401-0301, Japan",
        "image": "/wp-content/themes/allegiantairtickets/assets/images/coming-soon.png",
        "description": "Lake views + pastries; good brunch anchor."
    },
    {
        "id": "jp_fuji_f4",
        "segment": "trad_restaurants",
        "name": "Tamura Ginkatsutei (Hakone)",
        "city": "Fuji & Hakone",
        "lat": 35.250697929375335,
        "lng": 139.04925938000198,
        "rating": 4.3,
        "price_range": "15-30",
        "address": "1251 Gamotemachi, Hakone, Ashigarashimo District, Kanagawa 250-0522, Japan",
        "image": "/wp-content/themes/allegiantairtickets/assets/images/coming-soon.png",
        "description": "Premium tonkatsu sets; classic Hakone meal."
    },
    {
        "id": "jp_fuji_f5",
        "segment": "coffee",
        "name": "Amazake Chaya (Hakone)",
        "city": "Fuji & Hakone",
        "lat": 35.202182815490154,
        "lng": 139.04879463522389,
        "rating": 4.2,
        "price_range": "3-8",
        "address": "80-27 Motohakone, Hakone, Ashigarashimo District, Kanagawa 250-0522, Japan",
        "image": "/wp-content/themes/allegiantairtickets/assets/images/coming-soon.png",
        "description": "Traditional tea house; amazake and local snacks."
    },

    {
        "id": "jp_fuji_n1",
        "segment": "trails",
        "name": "Mount Fuji (5th Station)",
        "city": "Fuji & Hakone",
        "lat": 35.397700388691874,
        "lng": 138.7329170910264,
        "rating": 4.7,
        "price_range": "0-30",
        "address": "Fuji Subaru Line 5th Station, Japan",
        "image": "/wp-content/themes/allegiantairtickets/assets/images/coming-soon.png",
        "description": "Panoramic views; common start point for climbing season (transport costs vary)."
    },
    {
        "id": "jp_fuji_n2",
        "segment": "nature",
        "name": "Lake Kawaguchi (Kawaguchi-ko)",
        "city": "Fuji & Hakone",
        "lat": 35.53524124303401,
        "lng": 138.78952015946754,
        "rating": 4.6,
        "price_range": "0-25",
        "address": "Lake Kawaguchi, Fujikawaguchiko, Yamanashi, Japan",
        "image": "/wp-content/themes/allegiantairtickets/assets/images/coming-soon.png",
        "description": "Fuji views, boating, cycling, lakeside walks (paid activities optional)."
    },
    {
        "id": "jp_fuji_n3",
        "segment": "nature",
        "name": "Oishi Park (Lake Kawaguchi)",
        "city": "Fuji & Hakone",
        "lat": 35.52291657293719,
        "lng": 138.74575434870397,
        "rating": 4.6,
        "price_range": "0-0",
        "address": "Oishi Park, Fujikawaguchiko, Yamanashi, Japan",
        "image": "/wp-content/themes/allegiantairtickets/assets/images/coming-soon.png",
        "description": "Flower gardens with Fuji backdrop; very photo-friendly."
    },
    {
        "id": "jp_fuji_n4",
        "segment": "nature",
        "name": "Hakone Open-Air Museum",
        "city": "Fuji & Hakone",
        "lat": 35.2451746687407,
        "lng": 139.0507309671568,
        "rating": 4.6,
        "price_range": "15-18",
        "address": "The Hakone Open-Air Museum, Hakone, Japan",
        "image": "/wp-content/themes/allegiantairtickets/assets/images/coming-soon.png",
        "description": "Sculpture garden + nature setting; low-effort, high-impact stop."
    },
    {
        "id": "jp_fuji_n5",
        "segment": "nature",
        "name": "Lake Ashi (Ashinoko)",
        "city": "Fuji & Hakone",
        "lat": 35.20602872867461,
        "lng": 139.0072396958885,
        "rating": 4.6,
        "price_range": "0-25",
        "address": "Lake Ashi, Hakone, Japan",
        "image": "/wp-content/themes/allegiantairtickets/assets/images/coming-soon.png",
        "description": "Boat cruises and lake views; optional paid cruise tickets."
    },

    {
        "id": "jp_fuji_c1",
        "segment": "culture",
        "name": "Fujisan Sengen Shrine (Kawaguchi)",
        "city": "Fuji & Hakone",
        "lat": 35.239825937750844,
        "lng": 138.6076224366677,
        "rating": 4.6,
        "price_range": "0-0",
        "address": "Fujisan Hongu Sengen Taisha Shrine, Japan",
        "image": "/wp-content/themes/allegiantairtickets/assets/images/coming-soon.png",
        "description": "Historic Fuji worship site; classic shrine approach and cultural context."
    },
    {
        "id": "jp_fuji_c2",
        "segment": "attractions",
        "name": "Kawaguchiko Music Forest Museum",
        "city": "Fuji & Hakone",
        "lat": 35.522452999223496,
        "lng": 138.76871227457218,
        "rating": 4.2,
        "price_range": "8-18",
        "address": "Kawaguchiko Music Forest Museum, Fujikawaguchiko, Japan",
        "image": "/wp-content/themes/allegiantairtickets/assets/images/coming-soon.png",
        "description": "Music boxes + gardens; European-style setting with performances."
    },
    {
        "id": "jp_fuji_c3",
        "segment": "culture",
        "name": "Hakone Shrine",
        "city": "Fuji & Hakone",
        "lat": 35.20483482697651,
        "lng": 139.0253721333658,
        "rating": 4.6,
        "price_range": "0-0",
        "address": "Hakone Shrine, Motohakone, Hakone, Japan",
        "image": "/wp-content/themes/allegiantairtickets/assets/images/coming-soon.png",
        "description": "Lakeside torii gate; major Hakone cultural landmark."
    },
    {
        "id": "jp_fuji_c4",
        "segment": "culture",
        "name": "Narukawa Art Museum",
        "city": "Fuji & Hakone",
        "lat": 35.199932460228894,
        "lng": 139.03128944868135,
        "rating": 4.4,
        "price_range": "10-15",
        "address": "Narukawa Art Museum, Hakone, Japan",
        "image": "/wp-content/themes/allegiantairtickets/assets/images/coming-soon.png",
        "description": "Japanese modern art with strong Lake Ashi/Fuji viewpoint."
    },
    {
        "id": "jp_fuji_c5",
        "segment": "culture",
        "name": "Iyashi no Sato (Thatched Village)",
        "city": "Fuji & Hakone",
        "lat": 35.50501487959426,
        "lng": 138.6614815950937,
        "rating": 4.5,
        "price_range": "10-15",
        "address": "Saiko Iyashi-no-Sato Nemba (Traditional Japanese Village), Japan",
        "image": "/wp-content/themes/allegiantairtickets/assets/images/coming-soon.png",
        "description": "Open-air cultural village; thatched-roof homes and workshops."
    },

    {
        "id": "jp_hiro_f1",
        "segment": "street_food",
        "name": "Okonomimura (Hiroshima Okonomiyaki Food Hall)",
        "city": "Hiroshima & Miyajima",
        "lat": 34.39144748011658,
        "lng": 132.46190341159058,
        "rating": 4.4,
        "price_range": "6-15",
        "address": "5-13 Shintenchi, Naka Ward, Hiroshima 730-0034, Japan",
        "image": "/wp-content/themes/allegiantairtickets/assets/images/coming-soon.png",
        "description": "Multi-stall okonomiyaki hall; efficient for groups and choice."
    },
    {
        "id": "jp_hiro_f2",
        "segment": "trad_restaurants",
        "name": "Nagataya (Hiroshima Okonomiyaki)",
        "city": "Hiroshima & Miyajima",
        "lat": 34.39426524546757,
        "lng": 132.45449572878047,
        "rating": 4.5,
        "price_range": "8-18",
        "address": "5-7 Shintenchi, Naka Ward, Hiroshima 730-0034, Japan",
        "image": "/wp-content/themes/allegiantairtickets/assets/images/coming-soon.png",
        "description": "Classic Hiroshima-style okonomiyaki with noodles."
    },
    {
        "id": "jp_hiro_f3",
        "segment": "street_food",
        "name": "Miyajima Momiji Manju Stalls (Fujiiya Main Store)",
        "city": "Hiroshima & Miyajima",
        "lat": 34.298447522588205,
        "lng": 132.32138832550754,
        "rating": 4.6,
        "price_range": "2-6",
        "address": "Omotesando Street, Miyajima, Hatsukaichi, Hiroshima 739-0588, Japan",
        "image": "/wp-content/themes/allegiantairtickets/assets/images/coming-soon.png",
        "description": "Maple-leaf shaped sweets—signature Miyajima snack."
    },
    {
        "id": "jp_hiro_f4",
        "segment": "street_food",
        "name": "Oyster Stands (Kakiya)",
        "city": "Hiroshima & Miyajima",
        "lat": 34.298568506816416,
        "lng": 132.3216918749121,
        "rating": 4.5,
        "price_range": "5-15",
        "address": "Omotesando Street, Miyajima, Hatsukaichi, Hiroshima 739-0588, Japan",
        "image": "/wp-content/themes/allegiantairtickets/assets/images/coming-soon.png",
        "description": "Grilled oysters; Hiroshima specialty (best fresh on-site)."
    },
    {
        "id": "jp_hiro_f5",
        "segment": "trad_restaurants",
        "name": "Hassho Okonomiyaki (Hiroshima)",
        "city": "Hiroshima & Miyajima",
        "lat": 34.39381308918424,
        "lng": 132.46643553375267,
        "rating": 4.4,
        "price_range": "7-18",
        "address": "6-8 Nakamachi, Naka Ward, Hiroshima 730-0037, Japan",
        "image": "/wp-content/themes/allegiantairtickets/assets/images/coming-soon.png",
        "description": "Classic okonomiyaki option; central and easy to route."
    },

    {
        "id": "jp_hiro_n1",
        "segment": "nature",
        "name": "Hiroshima Peace Memorial Park",
        "city": "Hiroshima & Miyajima",
        "lat": 34.392713171501754,
        "lng": 132.45220993670486,
        "rating": 4.7,
        "price_range": "0-0",
        "address": "1-2 Nakajimacho, Naka Ward, Hiroshima 730-0811, Japan",
        "image": "/wp-content/themes/allegiantairtickets/assets/images/coming-soon.png",
        "description": "Reflective green space and memorials; high-impact, low-effort visit."
    },
    {
        "id": "jp_hiro_n2",
        "segment": "nature",
        "name": "Shukkeien Garden",
        "city": "Hiroshima & Miyajima",
        "lat": 34.40050882888687,
        "lng": 132.46771325875144,
        "rating": 4.5,
        "price_range": "3-6",
        "address": "2-11 Kaminobori, Naka Ward, Hiroshima 730-0014, Japan",
        "image": "/wp-content/themes/allegiantairtickets/assets/images/coming-soon.png",
        "description": "Traditional garden with ponds and miniature landscapes."
    },
    {
        "id": "jp_hiro_n3",
        "segment": "nature",
        "name": "Miyajima Natural Botanical Garden",
        "city": "Hiroshima & Miyajima",
        "lat": 34.283588214883665,
        "lng": 132.28812222019337,
        "rating": 4.4,
        "price_range": "0-0",
        "address": "Mitsumaruko-yama 1156-2, Miyajima, Hatsukaichi, Hiroshima 739-0535, Japan",
        "image": "/wp-content/themes/allegiantairtickets/assets/images/coming-soon.png",
        "description": "Forest and subtropical plants; quieter nature slot on Miyajima."
    },
    {
        "id": "jp_hiro_n4",
        "segment": "trails",
        "name": "Mount Misen (Hiking & Views)",
        "city": "Hiroshima & Miyajima",
        "lat": 34.27973885397403,
        "lng": 132.31977513474567,
        "rating": 4.5,
        "price_range": "0-20",
        "address": "Mount Misen, Miyajima, Japan",
        "image": "/wp-content/themes/allegiantairtickets/assets/images/coming-soon.png",
        "description": "Hike or ropeway; viewpoints over Seto Inland Sea."
    },
    {
        "id": "jp_hiro_n5",
        "segment": "beaches",
        "name": "Setonaikai National Park (Miyajima Coast)",
        "city": "Hiroshima & Miyajima",
        "lat": 34.2963,
        "lng": 132.3215,
        "rating": 4.6,
        "price_range": "0-0",
        "address": "Miyajima coast, Hiroshima, Japan",
        "image": "/wp-content/themes/allegiantairtickets/assets/images/coming-soon.png",
        "description": "Coastal nature around the Seto Inland Sea; scenic shoreline views."
    },

    {
        "id": "jp_hiro_c1",
        "segment": "culture",
        "name": "Itsukushima Shrine (Miyajima)",
        "city": "Hiroshima & Miyajima",
        "lat": 34.29600876824685,
        "lng": 132.3198289262832,
        "rating": 4.8,
        "price_range": "5-10",
        "address": "1-1 Miyajimacho, Hatsukaichi, Hiroshima 739-0588, Japan",
        "image": "/wp-content/themes/allegiantairtickets/assets/images/coming-soon.png",
        "description": "World Heritage shrine with iconic ‘floating’ torii gate."
    },
    {
        "id": "jp_hiro_c2",
        "segment": "culture",
        "name": "Hiroshima Peace Memorial Museum",
        "city": "Hiroshima & Miyajima",
        "lat": 34.39165320776889,
        "lng": 132.45287616802946,
        "rating": 4.7,
        "price_range": "2-6",
        "address": "Inside Hiroshima Peace Memorial Park, Hiroshima, Japan",
        "image": "/wp-content/themes/allegiantairtickets/assets/images/coming-soon.png",
        "description": "Core context for Hiroshima history and peace movement."
    },
    {
        "id": "jp_hiro_c3",
        "segment": "attractions",
        "name": "Hiroshima Castle",
        "city": "Hiroshima & Miyajima",
        "lat": 34.40284297432879,
        "lng": 132.45903576251496,
        "rating": 4.5,
        "price_range": "5-8",
        "address": "21-1 Motomachi, Naka Ward, Hiroshima 730-0011, Japan",
        "image": "/wp-content/themes/allegiantairtickets/assets/images/coming-soon.png",
        "description": "Reconstructed keep with exhibits; simple add-on to central Hiroshima route."
    },
    {
        "id": "jp_hiro_c4",
        "segment": "culture",
        "name": "Daisho-in Temple (Miyajima)",
        "city": "Hiroshima & Miyajima",
        "lat": 34.2920605899056,
        "lng": 132.31849408738336,
        "rating": 4.6,
        "price_range": "0-5",
        "address": "210 Miyajimacho, Hatsukaichi, Hiroshima 739-0588, Japan",
        "image": "/wp-content/themes/allegiantairtickets/assets/images/coming-soon.png",
        "description": "Temple complex with statues and halls; strong ‘walkable culture’ stop."
    },
    {
        "id": "jp_hiro_c5",
        "segment": "shopping",
        "name": "Omotesando Street (Miyajima)",
        "city": "Hiroshima & Miyajima",
        "lat": 34.2983,
        "lng": 132.3216,
        "rating": 4.5,
        "price_range": "0-15",
        "address": "Omotesando Street, Miyajima, Hatsukaichi, Hiroshima 739-0588, Japan",
        "image": "/wp-content/themes/allegiantairtickets/assets/images/coming-soon.png",
        "description": "Historic shopping street for snacks, souvenirs, and strolling."
    }
]