[
  {
    "id": "f1",
    "segment": "street_food",
    "name": "Gwangjang Market",
    "city": "Seoul",
    "lat": 37.57004127415263,
    "lng": 126.99960239597144,
    "rating": 4.2,
    "price_range": "2-8",
    "address": "88 Changgyeonggung-ro, Jongno-gu, Seoul, South Korea (서울특별시 종로구 창경궁로 88)",
    "image": "/wp-content/themes/ilegiants/assets/images/coming-soon.png",
    "hours": "Varies by stall"
  },
  {
    "id": "f2",
    "segment": "trad_restaurants",
    "name": "Mapo Ok (Seolleongtang)",
    "city": "Seoul",
    "lat": 37.53991775704414,
    "lng": 126.9432710419839,
    "rating": 4.2,
    "price_range": "8-15",
    "address": "312 Tojeong-ro, Mapo-gu, Seoul, South Korea (서울특별시 마포구 토정로 312)",
    "image": "/wp-content/themes/ilegiants/assets/images/coming-soon.png",
    "hours": "Usually 08:00–22:00 (check before going)"
  },
  {
    "id": "f3",
    "segment": "samgyup",
    "name": "Saemaeul Sikdang (Budget Korean BBQ)",
    "city": "Seoul",
    "lat": 37.55616115085991,
    "lng": 126.92582422922875,
    "rating": 4.7,
    "price_range": "8-15",
    "address": "6 Yonsei-ro 2-gil, Seodaemun-gu, Seoul, South Korea (서울특별시 서대문구 연세로2길 6)",
    "image": "/wp-content/themes/ilegiants/assets/images/coming-soon.png",
    "hours": "Check locally"
  },
  {
    "id": "f4",
    "segment": "noodles",
    "name": "Oreno Ramen (Insadong)",
    "city": "Seoul",
    "lat": 37.57657615155694,
    "lng": 126.98457397253632,
    "rating": 4.7,
    "price_range": "8-12",
    "address": "49-4 Yulgok-ro, Jongno-gu, Seoul, South Korea (서울특별시 종로구 율곡로 49-4)",
    "image": "/wp-content/themes/ilegiants/assets/images/coming-soon.png",
    "hours": "Check locally"
  },
  {
    "id": "f5",
    "segment": "trad_restaurants",
    "name": "Mingles (Modern Korean Fine Dining)",
    "city": "Seoul",
    "lat": 37.525340947872344,
    "lng": 127.04414664622132,
    "rating": 4.5,
    "price_range": "75-100+",
    "address": "2F, 19 Dosan-daero 67-gil, Gangnam-gu, Seoul, South Korea (서울특별시 강남구 도산대로67길 19 힐탑빌딩 2층)",
    "image": "/wp-content/themes/ilegiants/assets/images/coming-soon.png",
    "hours": "Reservation highly recommended"
  },
  {
    "id": "f6",
    "segment": "trad_restaurants",
    "name": "Myeongjin Jeonbok Abalone Restaurant",
    "city": "Jeju-si",
    "lat": 33.53248877063132,
    "lng": 126.85020931255949,
    "rating": 4.5,
    "price_range": "15-30",
    "address": "1282 Haemajihaean-ro, Gujwa-eup, Jeju-si, Jeju-do, South Korea",
    "image": "/wp-content/themes/ilegiants/assets/images/coming-soon.png",
    "hours": "09:30–21:30 (last order 20:30)"
  },
  {
    "id": "f7",
    "segment": "noodles",
    "name": "Ollae Guksu",
    "city": "Jeju-si",
    "lat": 33.49151979747119,
    "lng": 126.4972575286177,
    "rating": 4.1,
    "price_range": "7-10",
    "address": "24 Gwiarang-gil, Jeju-si, Jeju-do, South Korea",
    "image": "/wp-content/themes/ilegiants/assets/images/coming-soon.png",
    "hours": "Morning to early afternoon"
  },
  {
    "id": "f8",
    "segment": "samgyup",
    "name": "Sukseongdo Black Pork BBQ",
    "city": "Seogwipo-si",
    "lat": 33.48730660469552,
    "lng": 126.48919757482975,
    "rating": 4.7,
    "price_range": "12-25",
    "address": "7 Taepyeong-ro 353beon-gil, Seogwipo-si, Jeju, South Korea",
    "image": "/wp-content/themes/ilegiants/assets/images/coming-soon.png",
    "hours": "17:00–22:00"
  },
  {
    "id": "f9",
    "segment": "street_food",
    "name": "Dongmun Traditional Market",
    "city": "Jeju-si",
    "lat": 33.511514754151406,
    "lng": 126.52625626733277,
    "rating": 4.4,
    "price_range": "2-8",
    "address": "20 Gwandeok-ro 14-gil, Jeju-si, Jeju-do, South Korea",
    "image": "/wp-content/themes/ilegiants/assets/images/coming-soon.png",
    "hours": "07:00–20:00 (night market later)"
  },
  {
    "id": "f10",
    "segment": "trad_restaurants",
    "name": "Keunmul Living Haemultang",
    "city": "Jeju-si",
    "lat": 33.487931512123666,
    "lng": 126.43445857035759,
    "rating": 4.6,
    "price_range": "12-20",
    "address": "573 Oedoil-dong, Jeju-si, Jeju-do, South Korea",
    "image": "/wp-content/themes/ilegiants/assets/images/coming-soon.png",
    "hours": "10:00–21:00 (closed Mondays)"
  },
  {
    "id": "f11",
    "segment": "street_food",
    "name": "Jagalchi Fish Market (Seafood Stalls)",
    "city": "Busan",
    "lat": 35.09663446974763,
    "lng": 129.03079617650187,
    "rating": 4.7,
    "price_range": "8-20",
    "address": "52 Jagalchihaean-ro, Jung-gu, Busan, South Korea",
    "image": "/wp-content/themes/ilegiants/assets/images/coming-soon.png",
    "hours": "05:00–20:00"
  },
  {
    "id": "f12",
    "segment": "samgyup",
    "name": "Haeundae Hanwoo BBQ Restaurant",
    "city": "Busan",
    "lat": 35.15994935523906,
    "lng": 129.1617162317743,
    "rating": 4.6,
    "price_range": "20-35",
    "address": "Near Haeundae Beach, Haeundae-gu, Busan, South Korea",
    "image": "/wp-content/themes/ilegiants/assets/images/coming-soon.png",
    "hours": "17:00–23:00"
  },
  {
    "id": "f13",
    "segment": "trad_restaurants",
    "name": "Songjeong Samdae Gukbap",
    "city": "Busan",
    "lat": 35.155603268702336,
    "lng": 129.0585413750456,
    "rating": 4.5,
    "price_range": "6-10",
    "address": "Songjeong-dong, Haeundae-gu, Busan, South Korea",
    "image": "/wp-content/themes/ilegiants/assets/images/coming-soon.png",
    "hours": "08:00–21:00"
  },
  {
    "id": "f14",
    "segment": "coffee",
    "name": "Liberta Cheongsapo Cafe",
    "city": "Busan",
    "lat": 35.160890823096516,
    "lng": 129.19349646654814,
    "rating": 4.7,
    "price_range": "7-14",
    "address": "591-7 Jung-dong, Haeundae-gu, Busan, South Korea",
    "image": "/wp-content/themes/ilegiants/assets/images/coming-soon.png",
    "hours": "10:00–21:00"
  },
  {
    "id": "f15",
    "segment": "trad_restaurants",
    "name": "Bibijae Sichuan Oil Bibimbap",
    "city": "Busan",
    "lat": 35.14795350873585,
    "lng": 129.1114235772302,
    "rating": 4.8,
    "price_range": "8-12",
    "address": "45 Namcheonbada-ro, Suyeong-gu, Busan, South Korea",
    "image": "/wp-content/themes/ilegiants/assets/images/coming-soon.png",
    "hours": "10:00–21:00"
  },
  {
    "id": "f16",
    "segment": "trad_restaurants",
    "name": "Braai Republic Pyeongtaek",
    "city": "Pyeongtaek-si",
    "lat": 36.96000419135342,
    "lng": 127.04459476935924,
    "rating": 4.6,
    "price_range": "20-30",
    "address": "17-1 Anjeongshopping-ro, Paengseong-eup, Pyeongtaek-si, Gyeonggi-do, South Korea",
    "image": "/wp-content/themes/ilegiants/assets/images/coming-soon.png",
    "hours": "11:30–21:00"
  },
  {
    "id": "f17",
    "segment": "trad_restaurants",
    "name": "Subic Bay Sports Bar and Filipiniana Restaurant",
    "city": "Pyeongtaek-si",
    "lat": 37.080867357367964,
    "lng": 127.05240781594632,
    "rating": 4.9,
    "price_range": "10-20",
    "address": "26-2 Shopping-ro, Pyeongtaek-si, Gyeonggi-do, South Korea",
    "image": "/wp-content/themes/ilegiants/assets/images/coming-soon.png",
    "hours": "11:00–01:00"
  },
  {
    "id": "f18",
    "segment": "trad_restaurants",
    "name": "Do-Re Korean Restaurant",
    "city": "Pyeongtaek-si",
    "lat": 36.954399242542465,
    "lng": 127.0497290997632,
    "rating": 4.5,
    "price_range": "5-10",
    "address": "37 Anjeongsunhwan-ro, Paengseong-eup, Pyeongtaek-si, Gyeonggi-do, South Korea",
    "image": "/wp-content/themes/ilegiants/assets/images/coming-soon.png",
    "hours": "11:00–20:30"
  },
  {
    "id": "f19",
    "segment": "trad_restaurants",
    "name": "Jagaljagal (자갈자갈)",
    "city": "Yangpyeong-eup",
    "lat": 37.49833286194742,
    "lng": 127.500252248493,
    "rating": 4.7,
    "price_range": "30-40",
    "address": "22-37 Jungang-ro 91beon-gil, Yangpyeong-eup, Yangpyeong-gun, Gyeonggi-do, South Korea",
    "image": "/wp-content/themes/ilegiants/assets/images/coming-soon.png",
    "hours": "11:30–20:00"
  },
  {
    "id": "f20",
    "segment": "trad_restaurants",
    "name": "Little Greece",
    "city": "Pyeongtaek-si",
    "lat": 36.96333460114236,
    "lng": 127.0517679301588,
    "rating": 4.6,
    "price_range": "20-30",
    "address": "91 Anjeongshopping-ro, Paengseong-eup, Pyeongtaek-si, Gyeonggi-do, South Korea",
    "image": "/wp-content/themes/ilegiants/assets/images/coming-soon.png",
    "hours": "11:30–21:00"
  },
  {
    "id": "f21",
    "segment": "street_food",
    "name": "Chuncheon Dakgalbi Street",
    "city": "Chuncheon-si",
    "lat": 37.879610198773726,
    "lng": 127.72835230709121,
    "rating": 4.6,
    "price_range": "8-15",
    "address": "Chuncheon-si, Gangwon-do, South Korea",
    "image": "/wp-content/themes/ilegiants/assets/images/coming-soon.png",
    "hours": "Varies by restaurant"
  },
  {
    "id": "f22",
    "segment": "coffee",
    "name": "Gangneung Coffee Street",
    "city": "Gangneung-si",
    "lat": 37.77264134117609,
    "lng": 128.94542204606077,
    "rating": 4.7,
    "price_range": "4-10",
    "address": "Anmok-dong, Gangneung-si, Gangwon-do, South Korea",
    "image": "/wp-content/themes/ilegiants/assets/images/coming-soon.png",
    "hours": "Around 10:00–22:00"
  },
  {
    "id": "f23",
    "segment": "street_food",
    "name": "Sokcho Fresh Seafood Market",
    "city": "Sokcho-si",
    "lat": 38.20444854096563,
    "lng": 128.59015255903398,
    "rating": 4.5,
    "price_range": "10-25",
    "address": "Sokcho-si, Gangwon-do, South Korea",
    "image": "/wp-content/themes/ilegiants/assets/images/coming-soon.png",
    "hours": "Approx. 08:00–18:00"
  },
  {
    "id": "f24",
    "segment": "samgyup",
    "name": "Wonju Hoengseong Galbi",
    "city": "Wonju-si",
    "lat": 37.3383,
    "lng": 127.92016,
    "rating": 4.6,
    "price_range": "15-30",
    "address": "Wonju-si, Gangwon-do, South Korea",
    "image": "/wp-content/themes/ilegiants/assets/images/coming-soon.png",
    "hours": "Varies by restaurant"
  },
  {
    "id": "n1",
    "segment": "trails",
    "name": "Bukhansan National Park – Bukhansanseong Trailhead",
    "city": "Seoul",
    "lat": 37.61902347323985,
    "lng": 126.99695776529043,
    "rating": 4.7,
    "price_range": "2-3",
    "address": "262 Bogungmun-ro, Ui-dong, Gangbuk-gu, Seoul, South Korea",
    "image": "/wp-content/themes/ilegiants/assets/images/coming-soon.png",
    "hours": "Daylight hiking hours (check locally)"
  },
  {
    "id": "n2",
    "segment": "nature",
    "name": "Namsan Park & N Seoul Tower",
    "city": "Seoul",
    "lat": 37.55099160908981,
    "lng": 126.99090004543676,
    "rating": 4.5,
    "price_range": "2-22",
    "address": "105 Namsangongwon-gil, Yongsan-gu, Seoul, South Korea",
    "image": "/wp-content/themes/ilegiants/assets/images/coming-soon.png",
    "hours": "Park: open daily · Tower/cable car hours vary"
  },
  {
    "id": "n3",
    "segment": "nature",
    "name": "Seoul Forest",
    "city": "Seoul",
    "lat": 37.54438734639643,
    "lng": 127.03744376361085,
    "rating": 4.4,
    "price_range": "2-3",
    "address": "273 Ttukseom-ro, Seongdong-gu, Seoul, South Korea",
    "image": "/wp-content/themes/ilegiants/assets/images/coming-soon.png",
    "hours": "Generally open 24 hours (facilities vary)"
  },
  {
    "id": "n4",
    "segment": "nature",
    "name": "Hangang Park – Yeouido Section",
    "city": "Seoul",
    "lat": 37.52671017814707,
    "lng": 126.934709910722,
    "rating": 4.5,
    "price_range": "2-3",
    "address": "330 Yeouidong-ro, Yeongdeungpo-gu, Seoul, South Korea",
    "image": "/wp-content/themes/ilegiants/assets/images/coming-soon.png",
    "hours": "Park access 24 hours"
  },
  {
    "id": "n5",
    "segment": "trails",
    "name": "Namhansanseong Fortress Provincial Park",
    "city": "Gwangju-si",
    "lat": 37.47869819053619,
    "lng": 127.18219682244198,
    "rating": 4.6,
    "price_range": "3-6",
    "address": "731 Namhansanseong-ro, Gwangju-si, Gyeonggi-do, South Korea",
    "image": "/wp-content/themes/ilegiants/assets/images/coming-soon.png",
    "hours": "Fortress trails open daily; museum hours vary"
  },

  {
    "id": "n6",
    "segment": "trails",
    "name": "Hallasan National Park",
    "city": "Jeju-si",
    "lat": 33.360625982533,
    "lng": 126.53583322250743,
    "rating": 4.8,
    "price_range": "0-5",
    "address": "Hallasan trailheads around Seongpanak & Gwaneumsa, Jeju-si, Jeju-do, South Korea",
    "image": "/wp-content/themes/ilegiants/assets/images/coming-soon.png",
    "hours": "06:00–17:00 (seasonal; check before hiking)"
  },
  {
    "id": "n7",
    "segment": "trails",
    "name": "Seongsan Ilchulbong (Sunrise Peak)",
    "city": "Seogwipo-si",
    "lat": 33.45805534877087,
    "lng": 126.94249520814564,
    "rating": 4.7,
    "price_range": "2-5",
    "address": "284-12 Ilchul-ro, Seongsan-eup, Seogwipo-si, Jeju-do, South Korea",
    "image": "/wp-content/themes/ilegiants/assets/images/coming-soon.png",
    "hours": "07:00–20:00 (varies by season)"
  },
  {
    "id": "n8",
    "segment": "hidden_gems",
    "name": "Manjanggul Lava Tube",
    "city": "Jeju-si",
    "lat": 33.52825092402826,
    "lng": 126.77028801003969,
    "rating": 4.5,
    "price_range": "1-3",
    "address": "182 Manjanggul-gil, Gujwa-eup, Jeju-si, Jeju-do, South Korea",
    "image": "/wp-content/themes/ilegiants/assets/images/coming-soon.png",
    "hours": "09:00–18:00 (last admission ~17:10)"
  },
  {
    "id": "n9",
    "segment": "nature",
    "name": "Jeongbang Waterfall",
    "city": "Seogwipo-si",
    "lat": 33.24485364958659,
    "lng": 126.57180301503804,
    "rating": 4.6,
    "price_range": "2-4",
    "address": "Donghong-dong, Seogwipo-si, Jeju-do, South Korea",
    "image": "/wp-content/themes/ilegiants/assets/images/coming-soon.png",
    "hours": "09:00–18:00 (weather dependent)"
  },
  {
    "id": "n10",
    "segment": "beaches",
    "name": "Daepo Jusangjeolli Cliff",
    "city": "Seogwipo-si",
    "lat": 33.236794776021085,
    "lng": 126.42548610317334,
    "rating": 4.4,
    "price_range": "0-5",
    "address": "36-30 Ieodo-ro, Jungmun-dong, Seogwipo-si, Jeju-do, South Korea",
    "image": "/wp-content/themes/ilegiants/assets/images/coming-soon.png",
    "hours": "09:00–18:00"
  },

  {
    "id": "n11",
    "segment": "beaches",
    "name": "Taejongdae Park",
    "city": "Busan",
    "lat": 35.05307171868008,
    "lng": 129.0871997481988,
    "rating": 4.7,
    "price_range": "0-5",
    "address": "24 Jeonmang-ro, Yeongdo-gu, Busan, South Korea",
    "image": "/wp-content/themes/ilegiants/assets/images/coming-soon.png",
    "hours": "04:00–00:00"
  },
  {
    "id": "n12",
    "segment": "trails",
    "name": "Igidae Coastal Walk",
    "city": "Busan",
    "lat": 35.11807192033172,
    "lng": 129.12785210476687,
    "rating": 4.7,
    "price_range": "0-5",
    "address": "Yongho 3-dong, Nam-gu, Busan, South Korea",
    "image": "/wp-content/themes/ilegiants/assets/images/coming-soon.png",
    "hours": "Open 24 hours (daytime recommended)"
  },
  {
    "id": "n13",
    "segment": "beaches",
    "name": "Oryukdo Skywalk",
    "city": "Busan",
    "lat": 35.10067885736451,
    "lng": 129.12440012027756,
    "rating": 4.5,
    "price_range": "0-5",
    "address": "137 Oryukdo-ro, Nam-gu, Busan, South Korea",
    "image": "/wp-content/themes/ilegiants/assets/images/coming-soon.png",
    "hours": "09:00–18:00"
  },
  {
    "id": "n14",
    "segment": "beaches",
    "name": "Haeundae Beach & Dongbaek Island Walk",
    "city": "Busan",
    "lat": 35.15347036130631,
    "lng": 129.1535854714584,
    "rating": 4.6,
    "price_range": "0-5",
    "address": "Haeundae-gu, Busan, South Korea",
    "image": "/wp-content/themes/ilegiants/assets/images/coming-soon.png",
    "hours": "Beach & promenade 24 hours"
  },
  {
    "id": "n15",
    "segment": "trails",
    "name": "Geumjeongsan Mountain",
    "city": "Busan",
    "lat": 35.283040552532526,
    "lng": 129.05547334750474,
    "rating": 4.8,
    "price_range": "0-5",
    "address": "Geumjeong-gu, Busan, South Korea",
    "image": "/wp-content/themes/ilegiants/assets/images/coming-soon.png",
    "hours": "Trails generally open 24 hours"
  },

  {
    "id": "n16",
    "segment": "nature",
    "name": "Garden of Morning Calm",
    "city": "Gapyeong-gun",
    "lat": 37.74396883357787,
    "lng": 127.35248560605416,
    "rating": 4.7,
    "price_range": "8-15",
    "address": "432 Myeongsaem-ro, Gapyeong-gun, Gyeonggi-do, South Korea",
    "image": "/wp-content/themes/ilegiants/assets/images/coming-soon.png",
    "hours": "≈08:30–18:30 (varies seasonally)"
  },
  {
    "id": "n17",
    "segment": "nature",
    "name": "Ilsan Lake Park",
    "city": "Goyang-si",
    "lat": 37.656745247034934,
    "lng": 126.76625036379853,
    "rating": 4.6,
    "price_range": "0-3",
    "address": "1175-1 Janghang-dong, Ilsan-gu, Goyang-si, Gyeonggi-do, South Korea",
    "image": "/wp-content/themes/ilegiants/assets/images/coming-soon.png",
    "hours": "05:00–22:00"
  },
  {
    "id": "n18",
    "segment": "nature",
    "name": "Cheongpyeong Lake",
    "city": "Gapyeong-gun",
    "lat": 37.708504797604704,
    "lng": 127.45536354642107,
    "rating": 4.5,
    "price_range": "0-5",
    "address": "Cheongpyeong-eup, Gapyeong-gun, Gyeonggi-do, South Korea",
    "image": "/wp-content/themes/ilegiants/assets/images/coming-soon.png",
    "hours": "Always open (best daytime)"
  },
  {
    "id": "n19",
    "segment": "trails",
    "name": "Soyosan Mountain Trails",
    "city": "Dongducheon-si",
    "lat": 37.94262476298164,
    "lng": 127.0878118950882,
    "rating": 4.7,
    "price_range": "0-5",
    "address": "Soyosan area, Dongducheon-si / Yangju-si, Gyeonggi-do, South Korea",
    "image": "/wp-content/themes/ilegiants/assets/images/coming-soon.png",
    "hours": "Daylight hours (sunrise–sunset)"
  },
  {
    "id": "n20",
    "segment": "trails",
    "name": "Ungilsan Mountain",
    "city": "Namyangju-si",
    "lat": 37.57212084725548,
    "lng": 127.29519612508797,
    "rating": 4.7,
    "price_range": "0-5",
    "address": "Ungilsan area, Gyeonggi-do, South Korea",
    "image": "/wp-content/themes/ilegiants/assets/images/coming-soon.png",
    "hours": "Daylight hours recommended"
  },

  {
    "id": "n21",
    "segment": "trails",
    "name": "Seoraksan National Park",
    "city": "Sokcho-si",
    "lat": 38.15737782628691,
    "lng": 128.43551666759186,
    "rating": 4.8,
    "price_range": "3-7",
    "address": "Sokcho-si & Inje-gun, Gangwon-do, South Korea",
    "image": "/wp-content/themes/ilegiants/assets/images/coming-soon.png",
    "hours": "≈06:00–19:00 (seasonal)"
  },
  {
    "id": "n22",
    "segment": "nature",
    "name": "Nami Island",
    "city": "Chuncheon-si",
    "lat": 37.789957171995134,
    "lng": 127.52579908829905,
    "rating": 4.7,
    "price_range": "8-12",
    "address": "Namiseom-gil, Chuncheon-si, Gangwon-do, South Korea",
    "image": "/wp-content/themes/ilegiants/assets/images/coming-soon.png",
    "hours": "≈08:00–18:00"
  },
  {
    "id": "n23",
    "segment": "trails",
    "name": "Odaesan National Park",
    "city": "Pyeongchang-gun",
    "lat": 37.702783304887674,
    "lng": 128.60211329640603,
    "rating": 4.7,
    "price_range": "0-5",
    "address": "Pyeongchang-gun & Gangneung-si, Gangwon-do, South Korea",
    "image": "/wp-content/themes/ilegiants/assets/images/coming-soon.png",
    "hours": "24 hours (park access; facilities vary)"
  },
  {
    "id": "n24",
    "segment": "hidden_gems",
    "name": "Daegwallyeong Sheep Farm",
    "city": "Pyeongchang-gun",
    "lat": 37.68851768779038,
    "lng": 128.7527570964053,
    "rating": 4.6,
    "price_range": "7-15",
    "address": "Pyeongchang-gun, Gangwon-do, South Korea",
    "image": "/wp-content/themes/ilegiants/assets/images/coming-soon.png",
    "hours": "≈08:30–18:00"
  },
  {
    "id": "n25",
    "segment": "beaches",
    "name": "Sokcho Beach",
    "city": "Sokcho-si",
    "lat": 38.190585296371786,
    "lng": 128.6035143820818,
    "rating": 4.5,
    "price_range": "0-3",
    "address": "Sokcho-si, Gangwon-do, South Korea",
    "image": "/wp-content/themes/ilegiants/assets/images/coming-soon.png",
    "hours": "24 hours"
  },
  {
    "id": "c1",
    "segment": "attractions",
    "name": "Gyeongbokgung Palace",
    "city": "Seoul",
    "lat": 37.57962085502592,
    "lng": 126.97703926261904,
    "rating": 4.6,
    "price_range": "0-3",
    "address": "161 Sajik-ro, Jongno-gu, Seoul, South Korea (서울특별시 종로구 사직로 161)",
    "image": "/wp-content/themes/ilegiants/assets/images/coming-soon.png",
    "hours": "09:00–18:00 (last entry 17:00; varies by season)"
  },
  {
    "id": "c2",
    "segment": "culture",
    "name": "Bukchon Hanok Village",
    "city": "Seoul",
    "lat": 37.5814696483215,
    "lng": 126.9849517146497,
    "rating": 4.4,
    "price_range": "0-5",
    "address": "37 Gyedong-gil, Jongno-gu, Seoul, South Korea (서울특별시 종로구 계동길 37)",
    "image": "/wp-content/themes/ilegiants/assets/images/coming-soon.png",
    "hours": "Open 24 hours (best early morning)"
  },
  {
    "id": "c3",
    "segment": "culture",
    "name": "National Museum of Korea",
    "city": "Seoul",
    "lat": 37.523854854518966,
    "lng": 126.9804594711645,
    "rating": 4.7,
    "price_range": "0-4",
    "address": "137 Seobinggo-ro, Yongsan-gu, Seoul, South Korea (서울특별시 용산구 서빙고로 137)",
    "image": "/wp-content/themes/ilegiants/assets/images/coming-soon.png",
    "hours": "10:00–18:00 (to 21:00 Fri & Sat)"
  },
  {
    "id": "c4",
    "segment": "culture",
    "name": "Jongmyo Shrine",
    "city": "Seoul",
    "lat": 37.57465209788531,
    "lng": 126.99381113915445,
    "rating": 4.5,
    "price_range": "0-2",
    "address": "157 Jong-ro, Jongno-gu, Seoul, South Korea (서울특별시 종로구 종로 157)",
    "image": "/wp-content/themes/ilegiants/assets/images/coming-soon.png",
    "hours": "09:00–18:00 (last entry 17:30)"
  },
  {
    "id": "c5",
    "segment": "attractions",
    "name": "Dongdaemun Design Plaza (DDP)",
    "city": "Seoul",
    "lat": 37.56652752228302,
    "lng": 127.00922141221508,
    "rating": 4.4,
    "price_range": "0-8",
    "address": "281 Eulji-ro, Jung-gu, Seoul, South Korea (서울특별시 중구 을지로 281)",
    "image": "/wp-content/themes/ilegiants/assets/images/coming-soon.png",
    "hours": "10:00–19:00 (varies by exhibition)"
  },

  {
    "id": "c6",
    "segment": "culture",
    "name": "Jeju Folk Village",
    "city": "Seogwipo-si",
    "lat": 33.32252272264142,
    "lng": 126.84186841401306,
    "rating": 4.7,
    "price_range": "4-6",
    "address": "631-34 Minsokhaean-ro, Pyoseon-myeon, Seogwipo-si, Jeju-do, South Korea",
    "image": "/wp-content/themes/ilegiants/assets/images/coming-soon.png",
    "hours": "09:00–18:00 (last admission 17:00)"
  },
  {
    "id": "c7",
    "segment": "culture",
    "name": "Jeju Haenyeo Museum",
    "city": "Jeju-si",
    "lat": 33.523651441155515,
    "lng": 126.86343438386824,
    "rating": 4.6,
    "price_range": "3-5",
    "address": "26 Haenyeobangmulgwan-gil, Gujwa-eup, Jeju-si, Jeju-do, South Korea",
    "image": "/wp-content/themes/ilegiants/assets/images/coming-soon.png",
    "hours": "09:00–18:00 (closed some holidays)"
  },
  {
    "id": "c8",
    "segment": "culture",
    "name": "Jeju Stone Culture Park",
    "city": "Jeju-si",
    "lat": 33.448577337196205,
    "lng": 126.65865580045802,
    "rating": 4.5,
    "price_range": "5-8",
    "address": "2023 Namjo-ro, Jocheon-eup, Jeju-si, Jeju-do, South Korea",
    "image": "/wp-content/themes/ilegiants/assets/images/coming-soon.png",
    "hours": "09:00–18:00 (seasonal changes apply)"
  },
  {
    "id": "c9",
    "segment": "culture",
    "name": "Jeju Folklore & Natural History Museum",
    "city": "Jeju-si",
    "lat": 33.506511808744854,
    "lng": 126.53162457783337,
    "rating": 4.4,
    "price_range": "2-4",
    "address": "40 Samseong-ro, Jeju-si, Jeju-do, South Korea",
    "image": "/wp-content/themes/ilegiants/assets/images/coming-soon.png",
    "hours": "09:00–18:00 (closed Mondays & holidays)"
  },
  {
    "id": "c10",
    "segment": "culture",
    "name": "Jeju National Museum",
    "city": "Jeju-si",
    "lat": 33.51334498924636,
    "lng": 126.54887726250494,
    "rating": 4.3,
    "price_range": "0-3",
    "address": "17 Iljudong-ro, Jeju-si, Jeju-do, South Korea",
    "image": "/wp-content/themes/ilegiants/assets/images/coming-soon.png",
    "hours": "09:00–18:00 (closed Mondays)"
  },

  {
    "id": "c11",
    "segment": "attractions",
    "name": "Haedong Yonggungsa Temple",
    "city": "Busan",
    "lat": 35.18835111222131,
    "lng": 129.2233196982835,
    "rating": 4.7,
    "price_range": "0-5",
    "address": "Gijang-gun, Busan, South Korea",
    "image": "/wp-content/themes/ilegiants/assets/images/coming-soon.png",
    "hours": "Roughly sunrise–sunset (visit in daylight)"
  },
  {
    "id": "c12",
    "segment": "culture",
    "name": "Gamcheon Culture Village",
    "city": "Busan",
    "lat": 35.09739237905202,
    "lng": 129.01059156025542,
    "rating": 4.6,
    "price_range": "0-5",
    "address": "Gamcheon-dong, Saha-gu, Busan, South Korea",
    "image": "/wp-content/themes/ilegiants/assets/images/coming-soon.png",
    "hours": "Daylight hours (alleys open anytime; shops vary)"
  },
  {
    "id": "c13",
    "segment": "attractions",
    "name": "Beomeosa Temple",
    "city": "Busan",
    "lat": 35.28399009545648,
    "lng": 129.06876319258507,
    "rating": 4.5,
    "price_range": "0-5",
    "address": "Geumjeong-gu, Busan, South Korea",
    "image": "/wp-content/themes/ilegiants/assets/images/coming-soon.png",
    "hours": "≈07:00–18:00 (varies with ceremonies)"
  },
  {
    "id": "c14",
    "segment": "attractions",
    "name": "Busan Tower & Yongdusan Park",
    "city": "Busan",
    "lat": 35.101215344160856,
    "lng": 129.0323676,
    "rating": 4.4,
    "price_range": "0-10",
    "address": "Yongdusan Park, Jung-gu, Busan, South Korea",
    "image": "/wp-content/themes/ilegiants/assets/images/coming-soon.png",
    "hours": "Park daily; tower typically late morning–late evening"
  },
  {
    "id": "c15",
    "segment": "attractions",
    "name": "Sea Life Busan Aquarium",
    "city": "Busan",
    "lat": 35.15926973763364,
    "lng": 129.16100527867795,
    "rating": 4.6,
    "price_range": "20-25",
    "address": "Haeundae Beach area, Haeundae-gu, Busan, South Korea",
    "image": "/wp-content/themes/ilegiants/assets/images/coming-soon.png",
    "hours": "≈10:00–20:00 (varies by season)"
  },

  {
    "id": "c16",
    "segment": "culture",
    "name": "Korean Folk Village",
    "city": "Yongin-si",
    "lat": 37.25893999883959,
    "lng": 127.11811128774892,
    "rating": 4.6,
    "price_range": "15-25",
    "address": "90 Minsokchon-ro, Giheung-gu, Yongin-si, Gyeonggi-do, South Korea",
    "image": "/wp-content/themes/ilegiants/assets/images/coming-soon.png",
    "hours": "≈09:30–18:00"
  },
  {
    "id": "c17",
    "segment": "attractions",
    "name": "Suwon Hwaseong Fortress",
    "city": "Suwon-si",
    "lat": 37.28712484313426,
    "lng": 127.01193809356519,
    "rating": 4.7,
    "price_range": "3-6",
    "address": "Suwon-si, Gyeonggi-do, South Korea",
    "image": "/wp-content/themes/ilegiants/assets/images/coming-soon.png",
    "hours": "≈09:00–18:00"
  },
  {
    "id": "c18",
    "segment": "attractions",
    "name": "Silleuksa Temple",
    "city": "Yeoju-si",
    "lat": 37.297503571128736,
    "lng": 127.66157808513873,
    "rating": 4.5,
    "price_range": "0-5",
    "address": "282 Cheonsong-dong, Yeoju-si, Gyeonggi-do, South Korea",
    "image": "/wp-content/themes/ilegiants/assets/images/coming-soon.png",
    "hours": "≈08:00–17:00"
  },
  {
    "id": "c19",
    "segment": "culture",
    "name": "Haegang Ceramics Museum",
    "city": "Icheon-si",
    "lat": 37.30877346412863,
    "lng": 127.40488430008752,
    "rating": 4.6,
    "price_range": "5-10",
    "address": "Icheon-si, Gyeonggi-do, South Korea",
    "image": "/wp-content/themes/ilegiants/assets/images/coming-soon.png",
    "hours": "≈09:00–18:00"
  },
  {
    "id": "c20",
    "segment": "culture",
    "name": "Nam June Paik Art Center",
    "city": "Yongin-si",
    "lat": 37.269152753688765,
    "lng": 127.11038241891985,
    "rating": 4.6,
    "price_range": "8-12",
    "address": "1 Hongji-dong, Yongin-si, Gyeonggi-do, South Korea",
    "image": "/wp-content/themes/ilegiants/assets/images/coming-soon.png",
    "hours": "≈10:00–18:00 (Closed Tue)"
  },

  {
    "id": "c21",
    "segment": "festivals",
    "name": "Gangneung Danoje Festival",
    "city": "Gangneung-si",
    "lat": 37.74803616994409,
    "lng": 128.89507048656913,
    "rating": 4.7,
    "price_range": "0-10",
    "address": "Gangneung-si, Gangwon-do, South Korea",
    "image": "/wp-content/themes/ilegiants/assets/images/coming-soon.png",
    "hours": "Festival dates & times vary by year"
  },
  {
    "id": "c22",
    "segment": "shopping",
    "name": "Chuncheon Romantic Market",
    "city": "Chuncheon-si",
    "lat": 37.87810670253459,
    "lng": 127.72538442456985,
    "rating": 4.6,
    "price_range": "0-10",
    "address": "Chuncheon-si, Gangwon-do, South Korea",
    "image": "/wp-content/themes/ilegiants/assets/images/coming-soon.png",
    "hours": "Daily markets ≈10:00–20:00"
  },
  {
    "id": "c23",
    "segment": "attractions",
    "name": "Alpaca World",
    "city": "Hongcheon-gun",
    "lat": 37.825367005775085,
    "lng": 127.88368914590752,
    "rating": 4.6,
    "price_range": "12-20",
    "address": "Hongcheon-gun, Gangwon-do, South Korea",
    "image": "/wp-content/themes/ilegiants/assets/images/coming-soon.png",
    "hours": "≈10:00–18:00"
  },
  {
    "id": "c24",
    "segment": "culture",
    "name": "Gangwon Traditional Crafts Villages",
    "city": "Gangwon-do",
    "lat": 35.20705010000034,
    "lng": 128.5746563084595,
    "rating": 4.5,
    "price_range": "5-15",
    "address": "Villages across Gangwon-do, South Korea",
    "image": "/wp-content/themes/ilegiants/assets/images/coming-soon.png",
    "hours": "Daytime / workshop hours"
  },
  {
    "id": "c25",
    "segment": "festivals",
    "name": "Snow Festival & Winter Cultural Events",
    "city": "Pyeongchang-gun",
    "lat": 37.673325790620844,
    "lng": 128.7100256193323,
    "rating": 4.7,
    "price_range": "5-15",
    "address": "Various winter festival sites, Gangwon-do, South Korea",
    "image": "/wp-content/themes/ilegiants/assets/images/coming-soon.png",
    "hours": "Seasonal (winter)"
  }
]

