[
    {
        "id": "th_bkk_f1",
        "segment": "trad_restaurants",
        "name": "Baannok BKK",
        "city": "Bangkok",
        "lat": 13.741958243336088,
        "lng": 100.5434099085457,
        "rating": 4.9,
        "price_range": "25-40",
        "address": "34/3 Lang Suan Rd, Lumphini, Pathum Wan, Bangkok, Thailand",
        "image": "/wp-content/themes/allegiantairtickets/assets/images/coming-soon.png",
        "hours": "~11:00–22:00 (check before going)"
    },
    {
        "id": "th_bkk_f2",
        "segment": "trad_restaurants",
        "name": "ร้านขจร | Kajohn Authentic Southern Thai Cuisine",
        "city": "Bangkok",
        "lat": 13.756243764123163,
        "lng": 100.50974246436763,
        "rating": 4.9,
        "price_range": "12-18",
        "address": "245 Chakkraphatdi Phong Rd, Pom Prap, Bangkok, Thailand",
        "image": "/wp-content/themes/allegiantairtickets/assets/images/coming-soon.png",
        "hours": "~11:00–14:00 (varies)"
    },
    {
        "id": "th_bkk_f3",
        "segment": "trad_restaurants",
        "name": "Cappadocia Turkish Restaurant Bangkok",
        "city": "Bangkok",
        "lat": 13.744855875265438,
        "lng": 100.55638742203088,
        "rating": 4.9,
        "price_range": "12-18",
        "address": "33 Soi Sukhumvit 11, Khlong Toei, Bangkok, Thailand",
        "image": "/wp-content/themes/allegiantairtickets/assets/images/coming-soon.png",
        "hours": "~10:00–02:00 (check before going)"
    },
    {
        "id": "th_bkk_f4",
        "segment": "trad_restaurants",
        "name": "Côte by Mauro Colagreco",
        "city": "Bangkok",
        "lat": 13.71331118310816,
        "lng": 100.51088445088182,
        "rating": 4.8,
        "price_range": "60-100+",
        "address": "300/2 Charoen Krung Rd, Sathon, Bangkok, Thailand",
        "image": "/wp-content/themes/allegiantairtickets/assets/images/coming-soon.png",
        "hours": "Lunch ~12:00–14:00; dinner varies"
    },
    {
        "id": "th_bkk_f5",
        "segment": "coffee",
        "name": "Ekkaluck Bangkok",
        "city": "Bangkok",
        "lat": 13.726299126128987,
        "lng": 100.57795709504914,
        "rating": 4.8,
        "price_range": "25-50+",
        "address": "22 Sukhumvit 53 Alley, Watthana, Bangkok, Thailand",
        "image": "/wp-content/themes/allegiantairtickets/assets/images/coming-soon.png",
        "hours": "~06:00–22:30 (check before going)"
    },
    {
        "id": "th_bkk_n1",
        "segment": "nature",
        "name": "Suan Luang Rama IX",
        "city": "Bangkok",
        "lat": 13.688642147172166,
        "lng": 100.66415664901014,
        "rating": 4.7,
        "price_range": "0-0",
        "address": "Chaloem Phrakiat Ratchakan Thi 9 Rd, Prawet, Bangkok, Thailand",
        "image": "/wp-content/themes/allegiantairtickets/assets/images/coming-soon.png",
        "hours": "~05:00–19:00"
    },
    {
        "id": "th_bkk_n2",
        "segment": "nature",
        "name": "Benchakitti Park",
        "city": "Bangkok",
        "lat": 13.729725864552082,
        "lng": 100.55841664224756,
        "rating": 4.6,
        "price_range": "0-0",
        "address": "Ratchadaphisek Rd, Khlong Toei, Bangkok, Thailand",
        "image": "/wp-content/themes/allegiantairtickets/assets/images/coming-soon.png",
        "hours": "~04:30–22:00"
    },
    {
        "id": "th_bkk_n3",
        "segment": "nature",
        "name": "Lumphini Park",
        "city": "Bangkok",
        "lat": 13.73149209247672,
        "lng": 100.5417017561414,
        "rating": 4.5,
        "price_range": "0-0",
        "address": "Lumphini, Pathum Wan, Bangkok, Thailand",
        "image": "/wp-content/themes/allegiantairtickets/assets/images/coming-soon.png",
        "hours": "~04:30–22:00"
    },
    {
        "id": "th_bkk_n4",
        "segment": "nature",
        "name": "Sanam Luang",
        "city": "Bangkok",
        "lat": 13.755892866325794,
        "lng": 100.49326864831255,
        "rating": 4.6,
        "price_range": "0-0",
        "address": "Ratchadamnoen Klang Rd, Phra Nakhon, Bangkok, Thailand",
        "image": "/wp-content/themes/allegiantairtickets/assets/images/coming-soon.png",
        "hours": "~08:30–15:30 (may vary)"
    },
    {
        "id": "th_bkk_n5",
        "segment": "nature",
        "name": "Chatuchak Park",
        "city": "Bangkok",
        "lat": 13.807744469997962,
        "lng": 100.55543589321417,
        "rating": 4.5,
        "price_range": "0-0",
        "address": "Kamphaeng Phet Rd, Chatuchak, Bangkok, Thailand",
        "image": "/wp-content/themes/allegiantairtickets/assets/images/coming-soon.png",
        "hours": "~04:30–22:00"
    },
    {
        "id": "th_bkk_c1",
        "segment": "attractions",
        "name": "The Grand Palace",
        "city": "Bangkok",
        "lat": 13.750210126517274,
        "lng": 100.49169451706425,
        "rating": 4.6,
        "price_range": "15-20",
        "address": "Phra Borom Maha Ratchawang, Phra Nakhon, Bangkok, Thailand",
        "image": "/wp-content/themes/allegiantairtickets/assets/images/coming-soon.png",
        "hours": "~08:30–15:30"
    },
    {
        "id": "th_bkk_c2",
        "segment": "culture",
        "name": "Wat Phra Kaew (Temple of the Emerald Buddha)",
        "city": "Bangkok",
        "lat": 13.75213155095142,
        "lng": 100.49269689264005,
        "rating": 4.7,
        "price_range": "15-20",
        "address": "Na Phra Lan Rd, Phra Nakhon, Bangkok, Thailand",
        "image": "/wp-content/themes/allegiantairtickets/assets/images/coming-soon.png",
        "hours": "~08:30–15:30"
    },
    {
        "id": "th_bkk_c3",
        "segment": "culture",
        "name": "National Museum Bangkok",
        "city": "Bangkok",
        "lat": 13.757650556235394,
        "lng": 100.49251725843014,
        "rating": 4.7,
        "price_range": "7-10",
        "address": "Soi Na Phra That, Phra Nakhon, Bangkok, Thailand",
        "image": "/wp-content/themes/allegiantairtickets/assets/images/coming-soon.png",
        "hours": "~08:30–16:00"
    },
    {
        "id": "th_bkk_c4",
        "segment": "culture",
        "name": "Bangkok Art & Culture Centre (BACC)",
        "city": "Bangkok",
        "lat": 13.746776308816004,
        "lng": 100.5302092269869,
        "rating": 4.6,
        "price_range": "0-0",
        "address": "939 Rama I Rd, Pathum Wan, Bangkok, Thailand",
        "image": "/wp-content/themes/allegiantairtickets/assets/images/coming-soon.png",
        "hours": "~10:00–20:00"
    },
    {
        "id": "th_bkk_c5",
        "segment": "culture",
        "name": "Museum of Contemporary Art (MOCA Bangkok)",
        "city": "Bangkok",
        "lat": 13.85233541405845,
        "lng": 100.5630010634684,
        "rating": 4.7,
        "price_range": "7-15",
        "address": "499 Kamphaeng Phet 6 Rd, Chatuchak, Bangkok, Thailand",
        "image": "/wp-content/themes/allegiantairtickets/assets/images/coming-soon.png",
        "hours": "~10:00–18:00"
    },
    {
        "id": "th_phuket_f1",
        "segment": "trad_restaurants",
        "name": "Phuket Romantic Dining",
        "city": "Phuket",
        "lat": 7.92506537697567,
        "lng": 98.27263826000889,
        "rating": 4.9,
        "price_range": "60-100+",
        "address": "Kamala, Kathu, Phuket, Thailand",
        "image": "/wp-content/themes/allegiantairtickets/assets/images/coming-soon.png",
        "hours": "~10:00–23:00"
    },
    {
        "id": "th_phuket_f2",
        "segment": "trad_restaurants",
        "name": "Dinner in the Sky Phuket",
        "city": "Phuket",
        "lat": 7.844583339818109,
        "lng": 98.2994259309394,
        "rating": 4.9,
        "price_range": "60-100+",
        "address": "487 Patak Rd, Karon, Phuket, Thailand",
        "image": "/wp-content/themes/allegiantairtickets/assets/images/coming-soon.png",
        "hours": "~10:00–22:00"
    },
    {
        "id": "th_phuket_f3",
        "segment": "trad_restaurants",
        "name": "Blue Elephant Phuket Cooking School & Restaurant",
        "city": "Phuket",
        "lat": 7.88641651033732,
        "lng": 98.3846481865207,
        "rating": 4.7,
        "price_range": "50-100+",
        "address": "96 Krabi Rd, Talat Nuea, Phuket, Thailand",
        "image": "/wp-content/themes/allegiantairtickets/assets/images/coming-soon.png",
        "hours": "~11:30–22:00"
    },
    {
        "id": "th_phuket_f4",
        "segment": "trad_restaurants",
        "name": "Day & Night Of Phuket",
        "city": "Phuket",
        "lat": 7.886215956901237,
        "lng": 98.39108762204603,
        "rating": 4.7,
        "price_range": "15-40",
        "address": "Tambon Talat Yai, Mueang Phuket, Phuket, Thailand",
        "image": "/wp-content/themes/allegiantairtickets/assets/images/coming-soon.png",
        "hours": "~11:00–23:30"
    },
    {
        "id": "th_phuket_f5",
        "segment": "coffee",
        "name": "TAPAS Cafe & Restaurant - Phuket Old Town",
        "city": "Phuket",
        "lat": 7.883428358623709,
        "lng": 98.38955163737671,
        "rating": 4.8,
        "price_range": "12-18",
        "address": "51 Ratsada Rd, Talad Yai, Phuket, Thailand",
        "image": "/wp-content/themes/allegiantairtickets/assets/images/coming-soon.png",
        "hours": "~07:30–23:00"
    },
    {
        "id": "th_phuket_n1",
        "segment": "nature",
        "name": "Green Elephant Sanctuary Park",
        "city": "Phuket",
        "lat": 7.978981324441567,
        "lng": 98.30933252019801,
        "rating": 4.9,
        "price_range": "20-40",
        "address": "4 Soi Cherngtalay 1, Choeng Thale, Phuket, Thailand",
        "image": "/wp-content/themes/allegiantairtickets/assets/images/coming-soon.png",
        "hours": "~08:00–17:00"
    },
    {
        "id": "th_phuket_n2",
        "segment": "nature",
        "name": "Phuket Elephant Nature Reserve",
        "city": "Phuket",
        "lat": 7.977025800487172,
        "lng": 98.32678032202871,
        "rating": 4.9,
        "price_range": "40-60",
        "address": "100/12 Srisoonthorn Rd, Si Sunthon, Phuket, Thailand",
        "image": "/wp-content/themes/allegiantairtickets/assets/images/coming-soon.png",
        "hours": "~09:00–17:00"
    },
    {
        "id": "th_phuket_n3",
        "segment": "hidden_gems",
        "name": "Khao Rang Viewpoint",
        "city": "Phuket",
        "lat": 7.892464399973926,
        "lng": 98.38020971055246,
        "rating": 4.5,
        "price_range": "0-0",
        "address": "145/5 Patiphat Rd, Wichit, Phuket, Thailand",
        "image": "/wp-content/themes/allegiantairtickets/assets/images/coming-soon.png",
        "hours": "Open 24 hours"
    },
    {
        "id": "th_phuket_n4",
        "segment": "nature",
        "name": "Sirinat National Park",
        "city": "Phuket",
        "lat": 8.09872513521655,
        "lng": 98.2991649521145,
        "rating": 4.4,
        "price_range": "0-10",
        "address": "Sakhu, Thalang District, Phuket, Thailand",
        "image": "/wp-content/themes/allegiantairtickets/assets/images/coming-soon.png",
        "hours": "~08:30–16:30"
    },
    {
        "id": "th_phuket_n5",
        "segment": "nature",
        "name": "Saphan Hin Park",
        "city": "Phuket",
        "lat": 7.865427370926074,
        "lng": 98.39813185886331,
        "rating": 4.4,
        "price_range": "0-0",
        "address": "55/108 Chao Fah Tawan Tok Rd, Wichit, Phuket, Thailand",
        "image": "/wp-content/themes/allegiantairtickets/assets/images/coming-soon.png",
        "hours": "~06:00–22:00"
    },
    {
        "id": "th_phuket_c1",
        "segment": "attractions",
        "name": "The Big Buddha, Phuket",
        "city": "Phuket",
        "lat": 7.827591178413177,
        "lng": 98.31284283971344,
        "rating": 4.6,
        "price_range": "0-0",
        "address": "Karon, Mueang Phuket, Phuket, Thailand",
        "image": "/wp-content/themes/allegiantairtickets/assets/images/coming-soon.png",
        "hours": "Daytime hours (varies)"
    },
    {
        "id": "th_phuket_c2",
        "segment": "culture",
        "name": "Phuket Old Town",
        "city": "Phuket",
        "lat": 7.885888612520717,
        "lng": 98.39055087645814,
        "rating": 4.7,
        "price_range": "0-0",
        "address": "Thalang & Dibuk Streets, Phuket, Thailand",
        "image": "/wp-content/themes/allegiantairtickets/assets/images/coming-soon.png",
        "hours": "All day exploration"
    },
    {
        "id": "th_phuket_c3",
        "segment": "shopping",
        "name": "Bang Tao Night Market",
        "city": "Phuket",
        "lat": 7.986177816929092,
        "lng": 98.30039712937435,
        "rating": 4.5,
        "price_range": "0-0",
        "address": "Bang Tao, Phuket, Thailand",
        "image": "/wp-content/themes/allegiantairtickets/assets/images/coming-soon.png",
        "hours": "Afternoons–evenings (varies)"
    },
    {
        "id": "th_phuket_c4",
        "segment": "culture",
        "name": "Wat Chalong (Chalong Temple)",
        "city": "Phuket",
        "lat": 7.846699178043058,
        "lng": 98.33684178192586,
        "rating": 4.6,
        "price_range": "0-0",
        "address": "Chaofa West Rd, Chalong, Phuket, Thailand",
        "image": "/wp-content/themes/allegiantairtickets/assets/images/coming-soon.png",
        "hours": "~07:00–17:00"
    },
    {
        "id": "th_phuket_c5",
        "segment": "culture",
        "name": "Thai Hua Museum",
        "city": "Phuket",
        "lat": 7.885031168404342,
        "lng": 98.386776170656,
        "rating": 4.5,
        "price_range": "2-5",
        "address": "Phuket Old Town, Phuket, Thailand",
        "image": "/wp-content/themes/allegiantairtickets/assets/images/coming-soon.png",
        "hours": "~09:00–16:00"
    },
    {
        "id": "th_chiangmai_f1",
        "segment": "trad_restaurants",
        "name": "Garden to Table Chiangmai",
        "city": "Chiang Mai",
        "lat": 18.787183757693132,
        "lng": 98.99026282013003,
        "rating": 4.9,
        "price_range": "1-200",
        "address": "136 Ratchapakhinai Rd, Chiang Mai, Thailand",
        "image": "/wp-content/themes/allegiantairtickets/assets/images/coming-soon.png",
        "hours": "~14:30–20:30 (varies)"
    },
    {
        "id": "th_chiangmai_f2",
        "segment": "trad_restaurants",
        "name": "B Samcook Home16",
        "city": "Chiang Mai",
        "lat": 18.77666006663136,
        "lng": 98.99391579825492,
        "rating": 4.9,
        "price_range": "0-0",
        "address": "5 Kamphaeng Din 3 Alley, Haiya, Chiang Mai, Thailand",
        "image": "/wp-content/themes/allegiantairtickets/assets/images/coming-soon.png",
        "hours": "~11:00–20:30"
    },
    {
        "id": "th_chiangmai_f3",
        "segment": "trad_restaurants",
        "name": "Hummus Chiang Mai",
        "city": "Chiang Mai",
        "lat": 18.78911587348534,
        "lng": 98.99278300112225,
        "rating": 4.8,
        "price_range": "6-12",
        "address": "109/1 Mun Mueang Rd, Si Phum, Chiang Mai, Thailand",
        "image": "/wp-content/themes/allegiantairtickets/assets/images/coming-soon.png",
        "hours": "~10:00–22:30"
    },
    {
        "id": "th_chiangmai_f4",
        "segment": "trad_restaurants",
        "name": "Chada Vegetarian Restaurant Chiang Mai",
        "city": "Chiang Mai",
        "lat": 18.786458144817594,
        "lng": 98.99043306397964,
        "rating": 4.8,
        "price_range": "6-10",
        "address": "136/5 Ratchapakhinai Rd, Si Phum, Chiang Mai, Thailand",
        "image": "/wp-content/themes/allegiantairtickets/assets/images/coming-soon.png",
        "hours": "~09:00–20:00"
    },
    {
        "id": "th_chiangmai_f5",
        "segment": "coffee",
        "name": "Blanc Chiang Mai",
        "city": "Chiang Mai",
        "lat": 18.79288940657439,
        "lng": 98.97275356690488,
        "rating": 4.8,
        "price_range": "18-25",
        "address": "27 Siri Mangkalajarn S. 13, Suthep, Chiang Mai, Thailand",
        "image": "/wp-content/themes/allegiantairtickets/assets/images/coming-soon.png",
        "hours": "~11:00–22:00"
    },
    {
        "id": "th_chiangmai_n1",
        "segment": "trails",
        "name": "Doi Inthanon National Park",
        "city": "Chiang Mai",
        "lat": 18.58942575092086,
        "lng": 98.48770493016765,
        "rating": 4.7,
        "price_range": "0-0",
        "address": "Ban Luang, Chom Thong District, Chiang Mai, Thailand",
        "image": "/wp-content/themes/allegiantairtickets/assets/images/coming-soon.png",
        "hours": "~05:00–18:00"
    },
    {
        "id": "th_chiangmai_n2",
        "segment": "trails",
        "name": "Doi Suthep-Pui National Park",
        "city": "Chiang Mai",
        "lat": 18.807097911940467,
        "lng": 98.9161009067003,
        "rating": 4.6,
        "price_range": "0-0",
        "address": "Doi Suthep area, Chiang Mai, Thailand",
        "image": "/wp-content/themes/allegiantairtickets/assets/images/coming-soon.png",
        "hours": "~08:30–16:30"
    },
    {
        "id": "th_chiangmai_n3",
        "segment": "nature",
        "name": "Elephant Pride Sanctuary",
        "city": "Chiang Mai",
        "lat": 18.777785037896614,
        "lng": 99.00003241087944,
        "rating": 4.9,
        "price_range": "0-0",
        "address": "Chiang Mai, Thailand",
        "image": "/wp-content/themes/allegiantairtickets/assets/images/coming-soon.png",
        "hours": "~08:30–18:00 (check before going)"
    },
    {
        "id": "th_chiangmai_n4",
        "segment": "nature",
        "name": "Buak Hard Public Park",
        "city": "Chiang Mai",
        "lat": 18.781820327101755,
        "lng": 98.97968723558235,
        "rating": 4.5,
        "price_range": "0-0",
        "address": "65/2 Arak Rd, Phra Sing, Chiang Mai, Thailand",
        "image": "/wp-content/themes/allegiantairtickets/assets/images/coming-soon.png",
        "hours": "~05:00–21:00"
    },
    {
        "id": "th_chiangmai_n5",
        "segment": "nature",
        "name": "Royal Park Rajapruek",
        "city": "Chiang Mai",
        "lat": 18.744606316819617,
        "lng": 98.92801616340775,
        "rating": 4.5,
        "price_range": "0-0",
        "address": "334 Mae Hia, Chiang Mai, Thailand",
        "image": "/wp-content/themes/allegiantairtickets/assets/images/coming-soon.png",
        "hours": "~08:00–18:00"
    },
    {
        "id": "th_chiangmai_c1",
        "segment": "culture",
        "name": "Wat Phra That Doi Suthep",
        "city": "Chiang Mai",
        "lat": 18.805258957448995,
        "lng": 98.92164272654692,
        "rating": 4.7,
        "price_range": "0-0",
        "address": "Doi Suthep, Chiang Mai, Thailand",
        "image": "/wp-content/themes/allegiantairtickets/assets/images/coming-soon.png",
        "hours": "~06:00–18:00"
    },
    {
        "id": "th_chiangmai_c2",
        "segment": "culture",
        "name": "Wat Phra Singh Woramahawihan",
        "city": "Chiang Mai",
        "lat": 18.78854379160022,
        "lng": 98.98200220592116,
        "rating": 4.6,
        "price_range": "0-0",
        "address": "Mueang Chiang Mai District, Chiang Mai, Thailand",
        "image": "/wp-content/themes/allegiantairtickets/assets/images/coming-soon.png",
        "hours": "~06:00–17:00"
    },
    {
        "id": "th_chiangmai_c3",
        "segment": "culture",
        "name": "Wat Ku Tao",
        "city": "Chiang Mai",
        "lat": 18.8024723175653,
        "lng": 98.98838659477967,
        "rating": 4.6,
        "price_range": "0-0",
        "address": "Mueang Chiang Mai District, Chiang Mai, Thailand",
        "image": "/wp-content/themes/allegiantairtickets/assets/images/coming-soon.png",
        "hours": "~06:00–17:00"
    },
    {
        "id": "th_chiangmai_c4",
        "segment": "shopping",
        "name": "Chiang Mai Night Bazaar",
        "city": "Chiang Mai",
        "lat": 18.78534576343624,
        "lng": 99.00028813218978,
        "rating": 4.5,
        "price_range": "0-0",
        "address": "Chang Klan Rd / Old City, Chiang Mai, Thailand",
        "image": "/wp-content/themes/allegiantairtickets/assets/images/coming-soon.png",
        "hours": "Evenings (varies)"
    },
    {
        "id": "th_chiangmai_c5",
        "segment": "culture",
        "name": "Wat Chedi Luang",
        "city": "Chiang Mai",
        "lat": 18.78706371251696,
        "lng": 98.98659550211742,
        "rating": 4.6,
        "price_range": "0-0",
        "address": "Old City, Chiang Mai, Thailand",
        "image": "/wp-content/themes/allegiantairtickets/assets/images/coming-soon.png",
        "hours": "All day (temple hours vary)"
    },
    {
        "id": "th_kohsamui_f1",
        "segment": "trad_restaurants",
        "name": "Thai Kitchen 2 Restaurant",
        "city": "Koh Samui",
        "lat": 9.52833592942403,
        "lng": 100.0597317421227,
        "rating": 4.9,
        "price_range": "6-12",
        "address": "Ko Samui District, Surat Thani 84320, Thailand",
        "image": "/wp-content/themes/allegiantairtickets/assets/images/coming-soon.png",
        "hours": "~12:00–00:00"
    },
    {
        "id": "th_kohsamui_f2",
        "segment": "trad_restaurants",
        "name": "Jam Restaurant",
        "city": "Koh Samui",
        "lat": 9.51358771624938,
        "lng": 100.05105852580243,
        "rating": 4.9,
        "price_range": "6-12",
        "address": "84, 48 Moo 3, Route 4169, Bophut, Ko Samui District, Surat Thani, Thailand",
        "image": "/wp-content/themes/allegiantairtickets/assets/images/coming-soon.png",
        "hours": "~11:00–22:00"
    },
    {
        "id": "th_kohsamui_f3",
        "segment": "trad_restaurants",
        "name": "Share Restaurant - Koh Samui",
        "city": "Koh Samui",
        "lat": 9.539624295739177,
        "lng": 100.07115779752758,
        "rating": 4.9,
        "price_range": "18-24",
        "address": "Chaweng Beach area, Ko Samui District, Surat Thani, Thailand",
        "image": "/wp-content/themes/allegiantairtickets/assets/images/coming-soon.png",
        "hours": "~14:00–22:00"
    },
    {
        "id": "th_kohsamui_f4",
        "segment": "trad_restaurants",
        "name": "LimLongBar & Restaurant",
        "city": "Koh Samui",
        "lat": 9.47207337396733,
        "lng": 100.05613004744424,
        "rating": 4.9,
        "price_range": "3-6",
        "address": "Tambon Maret, Ko Samui District, Surat Thani, Thailand",
        "image": "/wp-content/themes/allegiantairtickets/assets/images/coming-soon.png",
        "hours": "~10:00–22:00"
    },
    {
        "id": "th_kohsamui_f5",
        "segment": "trad_restaurants",
        "name": "Pi Samui Beach Club and Restaurant",
        "city": "Koh Samui",
        "lat": 9.572177345671943,
        "lng": 100.0854959896801,
        "rating": 4.7,
        "price_range": "15-30",
        "address": "Bo Put, Ko Samui District, Surat Thani, Thailand",
        "image": "/wp-content/themes/allegiantairtickets/assets/images/coming-soon.png",
        "hours": "~11:00–22:00"
    },
    {
        "id": "th_kohsamui_n1",
        "segment": "nature",
        "name": "Mu Ko Ang Thong National Marine Park",
        "city": "Koh Samui",
        "lat": 9.635291855990115,
        "lng": 99.67183431058191,
        "rating": 4.7,
        "price_range": "20-60",
        "address": "Ko Samui District, Surat Thani, Thailand",
        "image": "/wp-content/themes/allegiantairtickets/assets/images/coming-soon.png",
        "hours": "~08:00–17:00"
    },
    {
        "id": "th_kohsamui_n2",
        "segment": "nature",
        "name": "Samui Elephant Kingdom Sanctuary",
        "city": "Koh Samui",
        "lat": 9.466135289404516,
        "lng": 99.98833336441848,
        "rating": 4.7,
        "price_range": "30-50",
        "address": "Namuang, Ko Samui District, Surat Thani, Thailand",
        "image": "/wp-content/themes/allegiantairtickets/assets/images/coming-soon.png",
        "hours": "~09:00–17:00"
    },
    {
        "id": "th_kohsamui_n3",
        "segment": "hidden_gems",
        "name": "Lad Koh View Point",
        "city": "Koh Samui",
        "lat": 9.49906996896983,
        "lng": 100.05999850037402,
        "rating": 4.5,
        "price_range": "0-0",
        "address": "Bo Put, Ko Samui District, Surat Thani, Thailand",
        "image": "/wp-content/themes/allegiantairtickets/assets/images/coming-soon.png",
        "hours": "Open 24 hours"
    },
    {
        "id": "th_kohsamui_n4",
        "segment": "hidden_gems",
        "name": "Tarnim Magic Garden",
        "city": "Koh Samui",
        "lat": 9.482916116569733,
        "lng": 99.99448141064042,
        "rating": 4.4,
        "price_range": "6-10",
        "address": "Tambon Na Mueang, Ko Samui District, Surat Thani, Thailand",
        "image": "/wp-content/themes/allegiantairtickets/assets/images/coming-soon.png",
        "hours": "~09:00–18:00"
    },
    {
        "id": "th_kohsamui_n5",
        "segment": "beaches",
        "name": "Maenam Beach",
        "city": "Koh Samui",
        "lat": 9.57039272021965,
        "lng": 100.00031778813516,
        "rating": 4.6,
        "price_range": "0-0",
        "address": "Maenam, Ko Samui District, Surat Thani, Thailand",
        "image": "/wp-content/themes/allegiantairtickets/assets/images/coming-soon.png",
        "hours": "Open 24 hours"
    },
    {
        "id": "th_kohsamui_c1",
        "segment": "culture",
        "name": "Big Buddha Temple (Wat Phra Yai)",
        "city": "Koh Samui",
        "lat": 9.570852781710688,
        "lng": 100.05978161879129,
        "rating": 4.5,
        "price_range": "0-0",
        "address": "North Koh Samui, Surat Thani, Thailand",
        "image": "/wp-content/themes/allegiantairtickets/assets/images/coming-soon.png",
        "hours": "~07:00–18:00"
    },
    {
        "id": "th_kohsamui_c2",
        "segment": "shopping",
        "name": "Fisherman’s Village Walking Street",
        "city": "Koh Samui",
        "lat": 9.558802424746982,
        "lng": 100.02668605379326,
        "rating": 4.5,
        "price_range": "0-0",
        "address": "Bophut, Ko Samui District, Surat Thani, Thailand",
        "image": "/wp-content/themes/allegiantairtickets/assets/images/coming-soon.png",
        "hours": "Evenings (Fri; varies)"
    },
    {
        "id": "th_kohsamui_c3",
        "segment": "culture",
        "name": "Wat Plai Laem",
        "city": "Koh Samui",
        "lat": 9.571291842661786,
        "lng": 100.06728561713568,
        "rating": 4.6,
        "price_range": "0-0",
        "address": "North-east Koh Samui, Surat Thani, Thailand",
        "image": "/wp-content/themes/allegiantairtickets/assets/images/coming-soon.png",
        "hours": "~08:00–18:00"
    },
    {
        "id": "th_kohsamui_c4",
        "segment": "attractions",
        "name": "Hin Ta & Hin Yai Rocks",
        "city": "Koh Samui",
        "lat": 9.452409246519965,
        "lng": 100.03956552209053,
        "rating": 4.4,
        "price_range": "0-0",
        "address": "Lamai, Ko Samui District, Surat Thani, Thailand",
        "image": "/wp-content/themes/allegiantairtickets/assets/images/coming-soon.png",
        "hours": "Open 24 hours"
    },
    {
        "id": "th_kohsamui_c5",
        "segment": "nature",
        "name": "Na Muang Waterfall 1",
        "city": "Koh Samui",
        "lat": 9.467251973968656,
        "lng": 99.98376147116477,
        "rating": 4.5,
        "price_range": "0-0",
        "address": "Near Namuang, Ko Samui District, Surat Thani, Thailand",
        "image": "/wp-content/themes/allegiantairtickets/assets/images/coming-soon.png",
        "hours": "~08:00–17:30"
    },
    {
        "id": "th_kotao_f1",
        "segment": "coffee",
        "name": "Blue Shark Brunch, Koh Tao",
        "city": "Ko Tao",
        "lat": 10.098681652412688,
        "lng": 99.82992235092655,
        "rating": 4.9,
        "price_range": "8-15",
        "address": "Ko Tao, Surat Thani, Thailand",
        "image": "/wp-content/themes/allegiantairtickets/assets/images/coming-soon.png",
        "hours": "~07:00–22:00"
    },
    {
        "id": "th_kotao_f2",
        "segment": "coffee",
        "name": "Centrico Cafe and Mexican Restaurant Halal",
        "city": "Ko Tao",
        "lat": 10.099938714663796,
        "lng": 99.82997556097412,
        "rating": 4.8,
        "price_range": "6-12",
        "address": "Sairee Beach, Ko Tao, Surat Thani, Thailand",
        "image": "/wp-content/themes/allegiantairtickets/assets/images/coming-soon.png",
        "hours": "~10:00–23:00"
    },
    {
        "id": "th_kotao_f3",
        "segment": "trad_restaurants",
        "name": "The Gallery Restaurant | Thai Cuisine | Fine Dining",
        "city": "Ko Tao",
        "lat": 10.090117709737267,
        "lng": 99.83318695888299,
        "rating": 4.8,
        "price_range": "40-100+",
        "address": "1 Sairee Rd, Ko Tao, Surat Thani, Thailand",
        "image": "/wp-content/themes/allegiantairtickets/assets/images/coming-soon.png",
        "hours": "~17:00–22:00"
    },
    {
        "id": "th_kotao_f4",
        "segment": "coffee",
        "name": "Tree House Cafe",
        "city": "Ko Tao",
        "lat": 10.07676251020012,
        "lng": 99.83732573372987,
        "rating": 4.8,
        "price_range": "6-12",
        "address": "Ko Tao, Surat Thani, Thailand",
        "image": "/wp-content/themes/allegiantairtickets/assets/images/coming-soon.png",
        "hours": "~11:00–15:00"
    },
    {
        "id": "th_kotao_f5",
        "segment": "trad_restaurants",
        "name": "Jumbo Restaurant",
        "city": "Ko Tao",
        "lat": 10.09795727991845,
        "lng": 99.834608853477,
        "rating": 4.9,
        "price_range": "6-10",
        "address": "Sairee Beach, Ko Tao, Surat Thani, Thailand",
        "image": "/wp-content/themes/allegiantairtickets/assets/images/coming-soon.png",
        "hours": "~12:00–22:30"
    },
    {
        "id": "th_kotao_n1",
        "segment": "trails",
        "name": "John-Suwan Viewpoint",
        "city": "Ko Tao",
        "lat": 10.060337858141661,
        "lng": 99.82943963558239,
        "rating": 4.7,
        "price_range": "0-0",
        "address": "Ko Tao, Surat Thani, Thailand",
        "image": "/wp-content/themes/allegiantairtickets/assets/images/coming-soon.png",
        "hours": "Open 24 hours"
    },
    {
        "id": "th_kotao_n2",
        "segment": "trails",
        "name": "WEST COAST VIEWPOINT",
        "city": "Ko Tao",
        "lat": 10.091198640903931,
        "lng": 99.83916903317409,
        "rating": 4.6,
        "price_range": "0-0",
        "address": "Ko Tao, Surat Thani, Thailand",
        "image": "/wp-content/themes/allegiantairtickets/assets/images/coming-soon.png",
        "hours": "~06:00–18:00"
    },
    {
        "id": "th_kotao_n3",
        "segment": "beaches",
        "name": "Mango Bay Beach (Ao Muong)",
        "city": "Ko Tao",
        "lat": 10.092683733269306,
        "lng": 99.85106676441846,
        "rating": 4.6,
        "price_range": "0-0",
        "address": "Ko Tao, Surat Thani, Thailand",
        "image": "/wp-content/themes/allegiantairtickets/assets/images/coming-soon.png",
        "hours": "Open 24 hours"
    },
    {
        "id": "th_kotao_n4",
        "segment": "beaches",
        "name": "Chalok Baan Kao Bay",
        "city": "Ko Tao",
        "lat": 10.06711126859414,
        "lng": 99.82505388963484,
        "rating": 4.4,
        "price_range": "0-0",
        "address": "Ko Tao, Surat Thani, Thailand",
        "image": "/wp-content/themes/allegiantairtickets/assets/images/coming-soon.png",
        "hours": "Open 24 hours"
    },
    {
        "id": "th_kotao_n5",
        "segment": "beaches",
        "name": "Taa Toh Lagoon Beach",
        "city": "Ko Tao",
        "lat": 10.062917831038169,
        "lng": 99.82819366441844,
        "rating": 4.3,
        "price_range": "0-0",
        "address": "Ko Tao, Surat Thani, Thailand",
        "image": "/wp-content/themes/allegiantairtickets/assets/images/coming-soon.png",
        "hours": "Open 24 hours"
    },
    {
        "id": "th_kotao_c1",
        "segment": "culture",
        "name": "Wat Koh Tao (วัดเกาะเจริญสันติธรรม)",
        "city": "Ko Tao",
        "lat": 10.086554602514276,
        "lng": 99.82729032690149,
        "rating": 4.8,
        "price_range": "0-0",
        "address": "Ko Tao, Ko Pha-ngan District, Surat Thani, Thailand",
        "image": "/wp-content/themes/allegiantairtickets/assets/images/coming-soon.png",
        "hours": "Typically daytime (varies)"
    },
    {
        "id": "th_kotao_c2",
        "segment": "attractions",
        "name": "King Rama V Rock and Statue",
        "city": "Ko Tao",
        "lat": 10.090390547906697,
        "lng": 99.82671088272386,
        "rating": 4.3,
        "price_range": "0-0",
        "address": "Ko Tao, Ko Pha-ngan District, Surat Thani, Thailand",
        "image": "/wp-content/themes/allegiantairtickets/assets/images/coming-soon.png",
        "hours": "Open 24 hours"
    },
    {
        "id": "th_kotao_c3",
        "segment": "culture",
        "name": "Burmese Buddhist Temple",
        "city": "Ko Tao",
        "lat": 10.156063716063716,
        "lng": 99.82896743966991,
        "rating": 3.5,
        "price_range": "0-0",
        "address": "Ko Tao, Ko Pha-ngan District, Surat Thani, Thailand",
        "image": "/wp-content/themes/allegiantairtickets/assets/images/coming-soon.png",
        "hours": "Daylight hours"
    },
    {
        "id": "th_kotao_c4",
        "segment": "culture",
        "name": "Pagoda (Local Temple Structure)",
        "city": "Ko Tao",
        "lat": 10.0875,
        "lng": 99.832,
        "rating": 4.3,
        "price_range": "0-0",
        "address": "Ko Tao, Ko Pha-ngan District, Surat Thani, Thailand",
        "image": "/wp-content/themes/allegiantairtickets/assets/images/coming-soon.png",
        "hours": "All day (verify locally)"
    },
    {
        "id": "th_kotao_c5",
        "segment": "culture",
        "name": "Tah Tooh Shrine",
        "city": "Ko Tao",
        "lat": 10.0635,
        "lng": 99.8289,
        "rating": 4.0,
        "price_range": "0-0",
        "address": "Ko Tao, Ko Pha-ngan District, Surat Thani, Thailand",
        "image": "/wp-content/themes/allegiantairtickets/assets/images/coming-soon.png",
        "hours": "Daylight hours (verify locally)"
    }
]
